"Buffer","Agency","Line(s)","Station Name","Year Opened","Latitude","Longitude"
"Existing Transit","ACE ","Altamont Commuter Express","Lathrop/Manteca","Pre-2000",37.8988904055703,-121.27032995224
"Existing Transit","ACE ","Altamont Commuter Express","Livermore","Pre-2000",37.6844560696227,-121.769663393497
"Existing Transit","ACE ","Altamont Commuter Express","Pleasanton","Pre-2000",37.6584657699152,-121.882190108299
"Existing Transit","ACE ","Altamont Commuter Express","Santa Clara/Great America","Pre-2000",37.4068,-121.967
"Existing Transit","ACE ","Altamont Commuter Express","Stockton","Pre-2000",37.9558,-121.277
"Existing Transit","ACE ","Altamont Commuter Express","Tracy","Pre-2000",37.6963,-121.435
"Existing Transit","ACE ","Altamont Commuter Express","Vasco","Pre-2000",37.6968928221864,-121.718827486038
"Existing Transit","ACE , Capitol Corridor Joint Powers Authority","Altamont Commuter Express, Capitol Corridor","Fremont","Pre-2000",37.5590882938435,-122.007465362549
"Existing Transit","Alameda/Oakland Ferry","Oakland / Alameda / San Francisco","Alameda Ferry Terminal","Pre-2000",37.7911972815759,-122.294188141823
"Existing Transit","Alameda/Oakland Ferry","Oakland / Alameda / San Francisco","Oakland Ferry Terminal","Pre-2000",37.795011,-122.279758
"Existing Transit","Alameda/Oakland Ferry","Oakland / Alameda / San Francisco","S.F. Ferry Building","Pre-2000",37.795923,-122.392052
"Existing Transit","Alameda/Oakland Ferry","Oakland / Alameda / San Francisco","S.F. Pier 41","Pre-2000",37.81053,-122.412801
"Existing Transit","Amtrak ","Acela Express","New Haven","Pre-2000",41.2977321706702,-72.9265433549881
"Existing Transit","Amtrak ","Acela Express","Route 128","Pre-2000",42.2103181240543,-71.1474287509918
"Existing Transit","Amtrak ","Acela Express, Keystone","Metropark, Islin, Nj","Pre-2000",40.5682025402184,-74.3295961618423
"Existing Transit","Amtrak ","Cascades","Albany ","Pre-2000",44.6306936645508,-123.102659583092
"Existing Transit","Amtrak ","Cascades","Eugene","Pre-2000",44.0552792042755,-123.092397451401
"Existing Transit","Amtrak ","Cascades","Kelso-Longview","Pre-2000",46.1421265476874,-122.913032770157
"Existing Transit","Amtrak ","Cascades","Oregon City","Pre-2000",45.3660165251273,-122.596049308777
"Existing Transit","Amtrak ","Cascades","PDX","Pre-2000",45.5285595564713,-122.676424384117
"Existing Transit","Amtrak ","Cascades","Salem","Pre-2000",44.9322172041224,-123.028120994568
"Existing Transit","Amtrak ","Cascades","Vancouver","Pre-2000",45.6290898089516,-122.685956954956
"Existing Transit","Amtrak ","Cascades ","Bellingham","Pre-2000",48.7202549687977,-122.511237859726
"Existing Transit","Amtrak ","Cascades ","Centralia","Pre-2000",46.7175187775804,-122.95285820961
"Existing Transit","Amtrak ","Cascades ","Mount Vernon","Pre-2000",48.4183855442024,-122.334308624268
"Existing Transit","Amtrak ","Cascades ","Olympia/Lacey","Pre-2000",46.9913150165224,-122.794007062912
"Existing Transit","Amtrak ","Cascades ","Tacoma","Pre-2000",47.2418796250225,-122.42050409317
"Existing Transit","Amtrak ","Downeaster","Dover","Pre-2000",43.1982055576142,-70.8781027793884
"Existing Transit","Amtrak ","Downeaster","Durham","Pre-2000",43.139,-70.9361
"Existing Transit","Amtrak ","Downeaster","Exeter","Pre-2000",42.9809732064826,-70.9587568044662
"Existing Transit","Amtrak ","Downeaster","Haverhill","Pre-2000",42.7734517430472,-71.0863924026489
"Existing Transit","Amtrak ","Downeaster","Old Orchard Beach","Pre-2000",43.5144575009971,-70.3760147094727
"Existing Transit","Amtrak ","Downeaster","Portland, ME Transportation Center","Pre-2000",43.6539452670809,-70.2914822101593
"Existing Transit","Amtrak ","Downeaster","Saco","Pre-2000",43.4962248979563,-70.4489976167679
"Existing Transit","Amtrak ","Downeaster","Wells","Pre-2000",43.3206448033153,-70.6120651960373
"Existing Transit","Amtrak ","Ethan Allen Express","Fair Haven","Pre-2000",43.5906,-73.262
"Existing Transit","Amtrak ","Ethan Allen Express","Fort Edward, Ny","Pre-2000",43.2697614922041,-73.5802754759789
"Existing Transit","Amtrak ","Ethan Allen Express","Hudson","Pre-2000",42.2539195718126,-73.7979340553284
"Existing Transit","Amtrak ","Ethan Allen Express","Rensselaer","Pre-2000",42.6416,-73.7413
"Existing Transit","Amtrak ","Ethan Allen Express","Rhinecliff","Pre-2000",41.9209,-73.9521
"Existing Transit","Amtrak ","Ethan Allen Express","Rutland, Vt - Rutland Plaza Shopping Mal","Pre-2000",43.6056614319183,-72.9817700386047
"Existing Transit","Amtrak ","Ethan Allen Express","Saratoga Springs","Pre-2000",43.0827951042879,-73.8102722167969
"Existing Transit","Amtrak ","Ethan Allen Express","Schenectady","Pre-2000",42.8145384730566,-73.9426016807556
"Existing Transit","Amtrak ","Hiawatha","Amtrak Milwaukee","Pre-2000",43.0345,-87.9166
"Existing Transit","Amtrak ","Hiawatha","Milwaukee General Mitchell Int Airport","Pre-2000",42.940747650094,-87.9245710372925
"Existing Transit","Amtrak ","Hiawatha","Sturtevant","Pre-2000",42.7187089846197,-87.9059725999832
"Existing Transit","Amtrak ","Keystone","Coatsville","Pre-2000",39.9856904939948,-75.8209285140038
"Existing Transit","Amtrak ","Keystone","Downington, Pa","Pre-2000",40.0021993475838,-75.7107889652252
"Existing Transit","Amtrak ","Keystone","Elizabethtown","Pre-2000",40.1474,-76.6146
"Existing Transit","Amtrak ","Keystone","Harrisburg","Pre-2000",40.2616,-76.8782
"Existing Transit","Amtrak ","Keystone","Lancaster","Pre-2000",40.0538,-76.3076
"Existing Transit","Amtrak ","Keystone","Middleton","Pre-2000",40.1929,-76.7316
"Existing Transit","Amtrak ","Keystone","Mount Joy","Pre-2000",40.1089,-76.5029
"Existing Transit","Amtrak ","Keystone","New Brunswick","Pre-2000",40.4968011091925,-74.4460201263428
"Existing Transit","Amtrak ","Keystone","Parksburg, Pa","Pre-2000",39.9592441798891,-75.9222006797791
"Existing Transit","Amtrak ","Keystone, Acela Express","Trenton","Pre-2000",40.2185156582104,-74.7539162635803
"Existing Transit","Amtrak ","Pacific Surfliner","Carpinteria","Pre-2000",34.3967826114549,-119.522956609726
"Existing Transit","Amtrak ","Pacific Surfliner","Goleta","Pre-2000",34.4377524088072,-119.843105077744
"Existing Transit","Amtrak ","Pacific Surfliner","Grover Beach","Pre-2000",35.1212687854015,-120.629271268845
"Existing Transit","Amtrak ","Pacific Surfliner","Guadalupe","Pre-2000",34.9629280674456,-120.573400855064
"Existing Transit","Amtrak ","Pacific Surfliner","Lompoc- Surf","Pre-2000",34.6827080508751,-120.605002641678
"Existing Transit","Amtrak ","Pacific Surfliner","San Luis Obispo","Pre-2000",35.2764382556197,-120.654698610306
"Existing Transit","Amtrak ","Pacific Surfliner","Santa Barbara","Pre-2000",34.4133933314554,-119.692783355713
"Existing Transit","Amtrak ","Pacific Surfliner","Ventura","Pre-2000",34.2770597582212,-119.299914836884
"Existing Transit","BART","DUBLIN/PLEASANTON TO DALY CITY","Castro Valley BART","Pre-2000",37.6907303057,-122.077460002
"Existing Transit","BART","DUBLIN/PLEASANTON TO DALY CITY","Dublin/Pleasanton BART","Pre-2000",37.7016736171,-121.900352519
"Existing Transit","BART","DUBLIN/PLEASANTON TO DALY CITY","West Dublin/Pleasanton BART","2011",37.6998,-121.9281
"Existing Transit","BART","DUBLIN/PLEASANTON TO DALY CITY, FREMONT TO RICHMOND, FREMONT TO DALY CITY","Bay Fair BART","Pre-2000",37.6978321791,-122.127858508
"Existing Transit","BART","DUBLIN/PLEASANTON TO DALY CITY, FREMONT TO RICHMOND, FREMONT TO DALY CITY","Fruitvale BART","Pre-2000",37.7746238056,-122.224327698
"Existing Transit","BART","DUBLIN/PLEASANTON TO DALY CITY, PITTSBURG/BAY POINT TO SFIA-MILLBRAE, FREMONT TO DALY CITY, RICHMOND TO DALY CITY-MILLBRAE","Powell St. BART","Pre-2000",37.7849710021,-122.407012285
"Existing Transit","BART","DUBLIN/PLEASANTON TO DALY CITY, RICHMOND TO DALY CITY-MILLBRAE, PITTSBURG/BAY POINT TO SFIA-MILLBRAE, FREMONT TO DALY CITY","Balboa Park BART","Pre-2000",37.7219808677,-122.447414196
"Existing Transit","BART","FREMONT TO DALY CITY, DUBLIN/PLEASANTON TO DALY CITY, RICHMOND TO DALY CITY-MILLBRAE, PITTSBURG/BAY POINT TO SFIA-MILLBRAE","Glen Park BART","Pre-2000",37.7329415443,-122.434114331
"Existing Transit","BART","FREMONT TO DALY CITY, FREMONT TO RICHMOND","Hayward Station BART","Pre-2000",37.6703868939,-122.088002125
"Existing Transit","BART","FREMONT TO DALY CITY, FREMONT TO RICHMOND","South Hayward BART","Pre-2000",37.6347995391,-122.057550587
"Existing Transit","BART","FREMONT TO DALY CITY, FREMONT TO RICHMOND, DUBLIN/PLEASANTON TO DALY CITY","Coliseum/Oakland Airport Station","Pre-2000",37.7542834767371,-122.197762727737
"Existing Transit","BART","FREMONT TO DALY CITY, RICHMOND TO DALY CITY-MILLBRAE, DUBLIN/PLEASANTON TO DALY CITY, PITTSBURG/BAY POINT TO SFIA-MILLBRAE","16th St. Mission BART","Pre-2000",37.765228,-122.419478
"Existing Transit","BART","FREMONT TO DALY CITY, RICHMOND TO DALY CITY-MILLBRAE, PITTSBURG/BAY POINT TO SFIA-MILLBRAE, DUBLIN/PLEASANTON TO DALY CITY","Civic Center/UN Plaza BART","Pre-2000",37.7796055874,-122.413851084
"Existing Transit","BART","FREMONT TO DALY CITY, RICHMOND TO DALY CITY-MILLBRAE, PITTSBURG/BAY POINT TO SFIA-MILLBRAE, DUBLIN/PLEASANTON TO DALY CITY","Daly City BART","Pre-2000",37.7061205485,-122.469080674
"Existing Transit","BART","FREMONT TO RICHMOND, DUBLIN/PLEASANTON TO DALY CITY, FREMONT TO DALY CITY","Lake Merritt BART","Pre-2000",37.7976023716,-122.265498391
"Existing Transit","BART","FREMONT TO RICHMOND, FREMONT TO DALY CITY","Fremont BART","Pre-2000",37.5573342821,-121.976395442
"Existing Transit","BART","FREMONT TO RICHMOND, FREMONT TO DALY CITY","Union City BART","Pre-2000",37.591202687,-122.017857962
"Existing Transit","BART","FREMONT TO RICHMOND, FREMONT TO DALY CITY, DUBLIN/PLEASANTON TO DALY CITY","San Leandro BART","Pre-2000",37.7226192073,-122.161311154
"Existing Transit","BART","FREMONT TO RICHMOND, PITTSBURG/BAY POINT TO SFIA-MILLBRAE, RICHMOND TO DALY CITY-MILLBRAE","MacArthur BART","Pre-2000",37.8284094079,-122.267187102
"Existing Transit","BART","FREMONT TO RICHMOND, RICHMOND TO DALY CITY-MILLBRAE","Ashby BART","Pre-2000",37.853061,-122.269946
"Existing Transit","BART","FREMONT TO RICHMOND, RICHMOND TO DALY CITY-MILLBRAE","Richmond BART","Pre-2000",37.9371699076,-122.3534001
"Existing Transit","BART","PITTSBURG/BAY POINT TO SFIA-MILLBRAE","Concord BART","Pre-2000",37.9720158312,-122.029861348
"Existing Transit","BART","PITTSBURG/BAY POINT TO SFIA-MILLBRAE","Lafayette BART","Pre-2000",37.8934254672,-122.123798472
"Existing Transit","BART","PITTSBURG/BAY POINT TO SFIA-MILLBRAE","North Concord/Martinez BART","Pre-2000",38.002576647,-122.025106029
"Existing Transit","BART","PITTSBURG/BAY POINT TO SFIA-MILLBRAE","Orinda BART","Pre-2000",37.8783608699,-122.183791135
"Existing Transit","BART","PITTSBURG/BAY POINT TO SFIA-MILLBRAE","Pittsburg/Bay Point BART","Pre-2000",38.0189343386,-121.941904488
"Existing Transit","BART","PITTSBURG/BAY POINT TO SFIA-MILLBRAE","Pleasant Hill/Contra Costa Centre BART","Pre-2000",37.9277362737,-122.056847034
"Existing Transit","BART","PITTSBURG/BAY POINT TO SFIA-MILLBRAE","Rockridge BART","Pre-2000",37.8441838514,-122.252731522
"Existing Transit","BART","PITTSBURG/BAY POINT TO SFIA-MILLBRAE","San Francisco Int BART","2003",37.6159,-122.392534
"Existing Transit","BART","PITTSBURG/BAY POINT TO SFIA-MILLBRAE","Walnut Creek BART","Pre-2000",37.9046388803,-122.068018135
"Existing Transit","BART","PITTSBURG/BAY POINT TO SFIA-MILLBRAE, DUBLIN/PLEASANTON TO DALY CITY, FREMONT TO DALY CITY, RICHMOND TO DALY CITY-MILLBRAE","West Oakland BART","Pre-2000",37.8046747595,-122.294582214
"Existing Transit","BART","PITTSBURG/BAY POINT TO SFIA-MILLBRAE, FREMONT TO DALY CITY, RICHMOND TO DALY CITY-MILLBRAE, DUBLIN/PLEASANTON TO DALY CITY","24th St. Mission BART","Pre-2000",37.752411,-122.418292
"Existing Transit","BART","PITTSBURG/BAY POINT TO SFIA-MILLBRAE, RICHMOND TO DALY CITY-MILLBRAE","San Bruno BART","2003",37.637143,-122.415912
"Existing Transit","BART","RICHMOND TO DALY CITY-MILLBRAE, DUBLIN/PLEASANTON TO DALY CITY, PITTSBURG/BAY POINT TO SFIA-MILLBRAE, FREMONT TO DALY CITY","Montgomery St. BART","Pre-2000",37.7893359611,-122.401485489
"Existing Transit","BART","RICHMOND TO DALY CITY-MILLBRAE, FREMONT TO DALY CITY, PITTSBURG/BAY POINT TO SFIA-MILLBRAE, DUBLIN/PLEASANTON TO DALY CITY","Embarcadero BART","Pre-2000",37.7930224405,-122.396813153
"Existing Transit","BART","RICHMOND TO DALY CITY-MILLBRAE, FREMONT TO RICHMOND","Downtown Berkeley BART","Pre-2000",37.8698684624,-122.268050932
"Existing Transit","BART","RICHMOND TO DALY CITY-MILLBRAE, FREMONT TO RICHMOND","El Cerrito Del Norte BART","Pre-2000",37.9256508785,-122.31721887
"Existing Transit","BART","RICHMOND TO DALY CITY-MILLBRAE, FREMONT TO RICHMOND","El Cerrito Plaza BART","Pre-2000",37.9030588009,-122.29927151
"Existing Transit","BART","RICHMOND TO DALY CITY-MILLBRAE, FREMONT TO RICHMOND","North Berkeley BART","Pre-2000",37.87402614,-122.283881911
"Existing Transit","BART","RICHMOND TO DALY CITY-MILLBRAE, FREMONT TO RICHMOND, PITTSBURG/BAY POINT TO SFIA-MILLBRAE","12th St. Oakland City Center BART","Pre-2000",37.8030927157,-122.271655014
"Existing Transit","BART","RICHMOND TO DALY CITY-MILLBRAE, FREMONT TO RICHMOND, PITTSBURG/BAY POINT TO SFIA-MILLBRAE","19th St. Oakland BART","Pre-2000",37.8076295249,-122.268869226
"Existing Transit","BART","RICHMOND TO DALY CITY-MILLBRAE, PITTSBURG/BAY POINT TO SFIA-MILLBRAE","Colma BART","Pre-2000",37.6845808931,-122.467369242
"Existing Transit","BART","RICHMOND TO DALY CITY-MILLBRAE, PITTSBURG/BAY POINT TO SFIA-MILLBRAE","Millbrae BART","2003",37.600006,-122.386534
"Existing Transit","BART","RICHMOND TO DALY CITY-MILLBRAE, PITTSBURG/BAY POINT TO SFIA-MILLBRAE","South San Francisco BART","2003",37.66433,-122.44399
"Existing Transit","Baylink","Vallejo / San Francisco","Vallejo Ferry Terminal","Pre-2000",38.100152,-122.262593
"Existing Transit","Blue & Gold Fleet","Angel Island / San Francisco","Angel Island Ferry Dock","Pre-2000",37.868485,-122.435067
"Existing Transit","Blue & Gold Fleet","San Francisco / Sausalito / Tiburon","Sausalito Ferry Terminal","Pre-2000",37.8561920467223,-122.477586865425
"Existing Transit","Blue & Gold Fleet","San Francisco / Sausalito / Tiburon","Tiburon Ferry Terminal","Pre-2000",37.872616,-122.455741
"Existing Transit","Boston Harbor Islands Ferries","Bumpkin,Georges,Grape,Lovells,Peddocks& South Shore Connector","Bumpkin Island","Pre-2000",42.280148,-70.901165
"Existing Transit","Boston Harbor Islands Ferries","Bumpkin,Georges,Grape,Lovells,Peddocks& South Shore Connector","George's Island","Pre-2000",42.319442,-70.930249
"Existing Transit","Boston Harbor Islands Ferries","Bumpkin,Georges,Grape,Lovells,Peddocks& South Shore Connector","Grape Island","Pre-2000",42.267272,-70.921051
"Existing Transit","Boston Harbor Islands Ferries","Bumpkin,Georges,Grape,Lovells,Peddocks& South Shore Connector","Hingham Shipyard","Pre-2000",42.25215,-70.92135
"Existing Transit","Boston Harbor Islands Ferries","Bumpkin,Georges,Grape,Lovells,Peddocks& South Shore Connector","Lovells Island","Pre-2000",42.326671,-70.926536
"Existing Transit","Boston Harbor Islands Ferries","Bumpkin,Georges,Grape,Lovells,Peddocks& South Shore Connector","Peddocks Island","Pre-2000",42.299449,-70.927144
"Existing Transit","Boston Harbor Islands Ferries","Bumpkin,Georges,Grape,Lovells,Peddocks& South Shore Connector","Pemberton Point","Pre-2000",42.303346,-70.920137
"Existing Transit","Boston Harbor Islands Ferries","Long Wharf-Spectacle/Georges","George's Island","Pre-2000",42.319442,-70.930249
"Existing Transit","Boston Harbor Islands Ferries","Long Wharf-Spectacle/Georges","Spectacle","Pre-2000",42.321285,-70.988794
"Existing Transit","Boston Harbor Islands Ferries","Spectacle & Georges Connector","George's Island","Pre-2000",42.319442,-70.930249
"Existing Transit","Boston Harbor Islands Ferries","Spectacle & Georges Connector","Spectacle","Pre-2000",42.321285,-70.988794
"Existing Transit","Boston Harbor Islands Ferries","Thompson Island Ferry","EDIC Pier #10","Pre-2000",42.343624,-71.033938
"Existing Transit","Boston Harbor Islands Ferries","Thompson Island Ferry","Spectacle","Pre-2000",42.321285,-70.988794
"Existing Transit","Boston Harbor Islands Ferries","Thompson Island Ferry","Thompson Island","Pre-2000",42.31851,-71.00957
"Existing Transit","Caltrain","Caltrain","22nd Street Caltrain","Pre-2000",37.757674,-122.392636
"Existing Transit","Caltrain","Caltrain","Atherton Caltrain","Pre-2000",37.464349,-122.198106
"Existing Transit","Caltrain","Caltrain","Bayshore Caltrain","Pre-2000",37.709544,-122.401318
"Existing Transit","Caltrain","Caltrain","Belmont Caltrain","Pre-2000",37.520504,-122.276075
"Existing Transit","Caltrain","Caltrain","Blossom Hill Caltrain","Pre-2000",37.252801,-121.797369
"Existing Transit","Caltrain","Caltrain","Broadway Caltrain","Pre-2000",37.587466,-122.363233
"Existing Transit","Caltrain","Caltrain","Burlingame Caltrain","Pre-2000",37.579719,-122.345266
"Existing Transit","Caltrain","Caltrain","California Ave Caltrain","Pre-2000",37.428835,-122.142703
"Existing Transit","Caltrain","Caltrain","Capitol Caltrain","Pre-2000",37.284359,-121.841589
"Existing Transit","Caltrain","Caltrain","College Park Caltrain","Pre-2000",37.34217,-121.914998
"Existing Transit","Caltrain","Caltrain","Gilroy Caltrain","Pre-2000",37.003084,-121.567091
"Existing Transit","Caltrain","Caltrain","Hayward Park Caltrain","Pre-2000",37.552346,-122.308916
"Existing Transit","Caltrain","Caltrain","Hillsdale Caltrain","Pre-2000",37.537503,-122.298001
"Existing Transit","Caltrain","Caltrain","Lawrence Caltrain","Pre-2000",37.371578,-121.996982
"Existing Transit","Caltrain","Caltrain","Menlo Park Caltrain","Pre-2000",37.454604,-122.182518
"Existing Transit","Caltrain","Caltrain","Millbrae Caltrain","Pre-2000",37.600006,-122.386534
"Existing Transit","Caltrain","Caltrain","Morgan Hill Caltrain","Pre-2000",37.129081,-121.650721
"Existing Transit","Caltrain","Caltrain","Mountain View Caltrain","Pre-2000",37.393879,-122.076327
"Existing Transit","Caltrain","Caltrain","Palo Alto Caltrain","Pre-2000",37.44307,-122.1649
"Existing Transit","Caltrain","Caltrain","Redwood City Caltrain","Pre-2000",37.485412,-122.231957
"Existing Transit","Caltrain","Caltrain","San Antonio Caltrain","Pre-2000",37.406163,-122.105787
"Existing Transit","Caltrain","Caltrain","San Bruno Caltrain","Pre-2000",37.624256,-122.408444
"Existing Transit","Caltrain","Caltrain","San Carlos Caltrain","Pre-2000",37.507361,-122.260365
"Existing Transit","Caltrain","Caltrain","San Francisco Caltrain","Pre-2000",37.7764393371,-122.394322993
"Existing Transit","Caltrain","Caltrain","San Jose Caltrain","Pre-2000",37.330196,-121.901985
"Existing Transit","Caltrain","Caltrain","San Martin Caltrain","Pre-2000",37.085775,-121.610809
"Existing Transit","Caltrain","Caltrain","San Mateo Caltrain","Pre-2000",37.567545,-122.32464
"Existing Transit","Caltrain","Caltrain","Santa Clara Caltrain","Pre-2000",37.352915,-121.936376
"Existing Transit","Caltrain","Caltrain","So. San Francisco Caltrain","Pre-2000",37.657013,-122.405516
"Existing Transit","Caltrain","Caltrain","Sunnyvale Caltrain","Pre-2000",37.377589,-122.030116
"Existing Transit","Caltrain","Caltrain","Tamien Caltrain","Pre-2000",37.31168,-121.882087
"Existing Transit","Capital Metro","METRO RAIL RED LINE(550)","CRESTVIEW STATION","2010",30.338448,-97.719656
"Existing Transit","Capital Metro","METRO RAIL RED LINE(550)","DOWNTOWN STATION","2010",30.265012,-97.739296
"Existing Transit","Capital Metro","METRO RAIL RED LINE(550)","HIGHLAND STATION","2010",30.328601,-97.716203
"Existing Transit","Capital Metro","METRO RAIL RED LINE(550)","HOWARD STATION","2010",30.43999,-97.701734
"Existing Transit","Capital Metro","METRO RAIL RED LINE(550)","KRAMER STATION","2010",30.392786,-97.7164
"Existing Transit","Capital Metro","METRO RAIL RED LINE(550)","LAKELINE STATION","2010",30.48103,-97.786543
"Existing Transit","Capital Metro","METRO RAIL RED LINE(550)","LEANDER STATION","2010",30.586401,-97.855735
"Existing Transit","Capital Metro","METRO RAIL RED LINE(550)","M L KING JR STATION","2010",30.279818,-97.709031
"Existing Transit","Capital Metro","METRO RAIL RED LINE(550)","PLAZA SALTILLO STATION","2010",30.262242,-97.727578
"Existing Transit","Capitol Corridor Joint Powers Authority","Capitol Corridor","Auburn-Conheim","Pre-2000",38.904232,-121.08255
"Existing Transit","Capitol Corridor Joint Powers Authority","Capitol Corridor","Berkeley","Pre-2000",37.867609,-122.300004
"Existing Transit","Capitol Corridor Joint Powers Authority","Capitol Corridor","Emeryville","Pre-2000",37.840701,-122.291802
"Existing Transit","Capitol Corridor Joint Powers Authority","Capitol Corridor","Fremont","Pre-2000",37.558546,-122.007629
"Existing Transit","Capitol Corridor Joint Powers Authority","Capitol Corridor","Great America-Santa Clara","Pre-2000",37.406835,-121.966962
"Existing Transit","Capitol Corridor Joint Powers Authority","Capitol Corridor","Hayward","Pre-2000",37.666669,-122.098702
"Existing Transit","Capitol Corridor Joint Powers Authority","Capitol Corridor","Martinez","Pre-2000",38.019734,-122.136351
"Existing Transit","Capitol Corridor Joint Powers Authority","Capitol Corridor","Oakland Coliseum","Pre-2000",37.752653,-122.197001
"Existing Transit","Capitol Corridor Joint Powers Authority","Capitol Corridor","Oakland Jack London","Pre-2000",37.793441,-122.271741
"Existing Transit","Capitol Corridor Joint Powers Authority","Capitol Corridor","Richmond","Pre-2000",37.936082,-122.35305
"Existing Transit","Capitol Corridor Joint Powers Authority","Capitol Corridor","Rocklin","Pre-2000",38.791306,-121.237259
"Existing Transit","Capitol Corridor Joint Powers Authority","Capitol Corridor","Roseville","Pre-2000",38.749966,-121.286238
"Existing Transit","Capitol Corridor Joint Powers Authority","Capitol Corridor","Sacramento","Pre-2000",38.584029,-121.499549
"Existing Transit","Capitol Corridor Joint Powers Authority","Capitol Corridor","San Jose","Pre-2000",37.33107,-121.901208
"Existing Transit","Capitol Corridor Joint Powers Authority","Capitol Corridor","Suisun-Fairfield","Pre-2000",38.243466,-122.039547
"Existing Transit","CAT  ","River Rail Electric Streetcar","2nd At Center","2004",34.7474221772178,-92.272909283638
"Existing Transit","CAT  ","River Rail Electric Streetcar","Altel Plaza Stop (120 Main)","2004",34.7549834037839,-92.2677138447762
"Existing Transit","CAT  ","River Rail Electric Streetcar","Clinton Presidential Center","2004",34.745423217901,-92.2657987475395
"Existing Transit","CAT  ","River Rail Electric Streetcar","Heifer International","2007",34.7446540354414,-92.2587633132935
"Existing Transit","CAT  ","River Rail Electric Streetcar","Historic Arkansas Museum Stop (2nd","2004",34.7468,-92.2686
"Existing Transit","CAT  ","River Rail Electric Streetcar","Main At 5th","2004",34.7579583395785,-92.2675958275795
"Existing Transit","CAT  ","River Rail Electric Streetcar","Main At 7th (Trolley Barn)","2004",34.7597785067002,-92.267507314682
"Existing Transit","CAT  ","River Rail Electric Streetcar","Main Street Bridge Stop","2004",34.748,-92.269
"Existing Transit","CAT  ","River Rail Electric Streetcar","Maple At 6th","2004",34.7591637089762,-92.2688913345337
"Existing Transit","CAT  ","River Rail Electric Streetcar","Maple At Broadway","2004",34.7562395008597,-92.2690334916115
"Existing Transit","CAT  ","River Rail Electric Streetcar","Peabody Stop (Markham At Scott)","2004",34.7479224604596,-92.2693312168121
"Existing Transit","CAT  ","River Rail Electric Streetcar","President Clinton Ave At Commerce","2007",34.7474331967051,-92.2657316923141
"Existing Transit","CAT  ","River Rail Electric Streetcar","West Markham At Spring","2004",34.748550565085,-92.2739204764366
"Existing Transit","CATS","LYNX Blue Line(501)","3rd/ Convention Center Station","2007",35.223625,-80.843231
"Existing Transit","CATS","LYNX Blue Line(501)","7th St Station","2007",35.227367,-80.838127
"Existing Transit","CATS","LYNX Blue Line(501)","Archdale Station","2007",35.152889,-80.87748
"Existing Transit","CATS","LYNX Blue Line(501)","Arrowood Station","2007",35.135597,-80.876358
"Existing Transit","CATS","LYNX Blue Line(501)","Bland Station","2007",35.215778,-80.855339
"Existing Transit","CATS","LYNX Blue Line(501)","Carson Station","2007",35.218815,-80.850945
"Existing Transit","CATS","LYNX Blue Line(501)","CTC Station","2007",35.22533,-80.840973
"Existing Transit","CATS","LYNX Blue Line(501)","East/ West Station","2007",35.212112,-80.859138
"Existing Transit","CATS","LYNX Blue Line(501)","I-485 Station","2007",35.107082,-80.882919
"Existing Transit","CATS","LYNX Blue Line(501)","New Bern Station","2007",35.199879,-80.869041
"Existing Transit","CATS","LYNX Blue Line(501)","Scaleybark Station","2007",35.190834,-80.875069
"Existing Transit","CATS","LYNX Blue Line(501)","Sharon Rd West Station","2007",35.119442,-80.881958
"Existing Transit","CATS","LYNX Blue Line(501)","Stonewall Station","2007",35.221313,-80.847061
"Existing Transit","CATS","LYNX Blue Line(501)","Tyvola Station","2007",35.162971,-80.877518
"Existing Transit","CATS","LYNX Blue Line(501)","Woodlawn Station","2007",35.175781,-80.879059
"Existing Transit","Chappaquiddick Ferry,Inc.","Chappy Ferry","Chappaquiddick","Pre-2000",41.38862,-70.5084
"Existing Transit","Chappaquiddick Ferry,Inc.","Chappy Ferry","Dock Street","Pre-2000",41.38943,-70.51015
"Existing Transit","Charm City Circulator","Charm City Circulator Harbor Connector(HC)","CANTON WATERFRONT PARK","Pre-2000",39.277256,-76.572254
"Existing Transit","Charm City Circulator","Charm City Circulator Harbor Connector(HC)","MARITIME PARK","Pre-2000",39.279996,-76.595836
"Existing Transit","Charm City Circulator","Charm City Circulator Harbor Connector(HC)","TIDE POINT","Pre-2000",39.275197,-76.589866
"Existing Transit","City of Seattle","98","FAIRVIEW AVE N & ALOHA ST","2007",47.6275864,-122.332214
"Existing Transit","City of Seattle","98","SLU STREETCAR & TERRY AVE N","2007",47.6258202,-122.336411
"Existing Transit","City of Seattle","98","TERRY AVE N & REPUBLICAN ST","2007",47.6234207,-122.337036
"Existing Transit","City of Seattle","98","TERRY AVE N & THOMAS ST","2007",47.6215057,-122.337051
"Existing Transit","City of Seattle","98","WESTLAKE AVE & 7TH AVE","2007",47.6156197,-122.337799
"Existing Transit","City of Seattle","98","WESTLAKE AVE & 9TH AVE","2007",47.6176033,-122.338417
"Existing Transit","City of Seattle","98","WESTLAKE AVE N & HARRISON ST","2007",47.6213837,-122.33857
"Existing Transit","City of Seattle","98","WESTLAKE AVE N & MERCER ST","2007",47.6243477,-122.338539
"Existing Transit","City of Seattle","98","WESTLAKE AVE & OLIVE WAY","2007",47.6133003,-122.337341
"Existing Transit","City of Seattle","98","WESTLAKE AVE & VIRGINIA ST","2007",47.6148682,-122.33786
"Existing Transit","City of Seattle","Seattle Center Monorail","Seattle Center","Pre-2000",47.6212610617423,-122.349913716316
"Existing Transit","City of Seattle","Seattle Center Monorail","Westlake","Pre-2000",47.6116440379251,-122.336905002594
"Existing Transit","CTA","Blue Line","Addison-Blue","Pre-2000",41.94738,-87.71906
"Existing Transit","CTA","Blue Line","Austin-Blue","Pre-2000",41.870851,-87.776812
"Existing Transit","CTA","Blue Line","Belmont-Blue","Pre-2000",41.938132,-87.712359
"Existing Transit","CTA","Blue Line","California-O'Hare","Pre-2000",41.921939,-87.69689
"Existing Transit","CTA","Blue Line","Chicago-Blue","Pre-2000",41.896075,-87.655214
"Existing Transit","CTA","Blue Line","Cicero-Forest Park","Pre-2000",41.871574,-87.745154
"Existing Transit","CTA","Blue Line","Clinton-Blue","Pre-2000",41.875539,-87.640984
"Existing Transit","CTA","Blue Line","Cumberland","Pre-2000",41.984246,-87.838028
"Existing Transit","CTA","Blue Line","Damen-O'Hare","Pre-2000",41.909744,-87.677437
"Existing Transit","CTA","Blue Line","Division","Pre-2000",41.903355,-87.666496
"Existing Transit","CTA","Blue Line","Forest Park","Pre-2000",41.874257,-87.817318
"Existing Transit","CTA","Blue Line","Grand-Blue","Pre-2000",41.891189,-87.647578
"Existing Transit","CTA","Blue Line","Harlem-Forest Park","Pre-2000",41.87349,-87.806961
"Existing Transit","CTA","Blue Line","Harlem-O'Hare","Pre-2000",41.98227,-87.8089
"Existing Transit","CTA","Blue Line","Illinois Medical District","Pre-2000",41.875706,-87.673932
"Existing Transit","CTA","Blue Line","Irving Park-Blue","Pre-2000",41.952925,-87.729229
"Existing Transit","CTA","Blue Line","Jackson-Blue","Pre-2000",41.878183,-87.629296
"Existing Transit","CTA","Blue Line","Jefferson Park","Pre-2000",41.970634,-87.760892
"Existing Transit","CTA","Blue Line","Kedzie-Homan","Pre-2000",41.874341,-87.70604
"Existing Transit","CTA","Blue Line","LaSalle","Pre-2000",41.875568,-87.631722
"Existing Transit","CTA","Blue Line","Logan Square","Pre-2000",41.929728,-87.708541
"Existing Transit","CTA","Blue Line","Monroe-Blue","Pre-2000",41.880703,-87.629378
"Existing Transit","CTA","Blue Line","Montrose-Blue","Pre-2000",41.961539,-87.743574
"Existing Transit","CTA","Blue Line","Oak Park-Blue","Pre-2000",41.872108,-87.791602
"Existing Transit","CTA","Blue Line","O'Hare","Pre-2000",41.97766526,-87.90422307
"Existing Transit","CTA","Blue Line","Pulaski-Forest Park","Pre-2000",41.873797,-87.725663
"Existing Transit","CTA","Blue Line","Racine","Pre-2000",41.87592,-87.659458
"Existing Transit","CTA","Blue Line","Rosemont","Pre-2000",41.983507,-87.859388
"Existing Transit","CTA","Blue Line","UIC-Halsted","Pre-2000",41.875474,-87.649707
"Existing Transit","CTA","Blue Line","Washington-Blue","Pre-2000",41.883164,-87.62944
"Existing Transit","CTA","Blue Line","Western-Forest Park","Pre-2000",41.875478,-87.688436
"Existing Transit","CTA","Blue Line","Western-O'Hare","Pre-2000",41.916157,-87.687364
"Existing Transit","CTA","Brown Line","Addison-Brown","Pre-2000",41.947028,-87.674642
"Existing Transit","CTA","Brown Line","Damen-Brown","Pre-2000",41.966286,-87.678639
"Existing Transit","CTA","Brown Line","Francisco","Pre-2000",41.966046,-87.701644
"Existing Transit","CTA","Brown Line","Irving Park-Brown","Pre-2000",41.954521,-87.674868
"Existing Transit","CTA","Brown Line","Kedzie-Brown","Pre-2000",41.965996,-87.708821
"Existing Transit","CTA","Brown Line","Kimball","Pre-2000",41.967901,-87.713065
"Existing Transit","CTA","Brown Line","Montrose-Brown","Pre-2000",41.961756,-87.675047
"Existing Transit","CTA","Brown Line","Paulina","Pre-2000",41.943623,-87.670907
"Existing Transit","CTA","Brown Line","Rockwell","Pre-2000",41.966115,-87.6941
"Existing Transit","CTA","Brown Line","Southport","Pre-2000",41.943744,-87.663619
"Existing Transit","CTA","Brown Line","Western-Brown","Pre-2000",41.966163,-87.688502
"Existing Transit","CTA","Brown Line, Purple Line","Wellington","Pre-2000",41.936033,-87.653266
"Existing Transit","CTA","Brown Line, Purple Line, Pink Line, Orange Line, Green Line","Randolph/Wabash","Pre-2000",41.884431,-87.626149
"Existing Transit","CTA","Brown Line, Purple Line, Red Line","Fullerton","Pre-2000",41.925051,-87.652866
"Existing Transit","CTA","Brown Line, Red Line, Purple Line","Belmont","Pre-2000",41.939751,-87.65338
"Existing Transit","CTA","Green Line","35-Bronzeville-IIT","Pre-2000",41.831677,-87.625826
"Existing Transit","CTA","Green Line","43rd","Pre-2000",41.816462,-87.619021
"Existing Transit","CTA","Green Line","47th-Green","Pre-2000",41.809209,-87.618826
"Existing Transit","CTA","Green Line","51st","Pre-2000",41.80209,-87.618487
"Existing Transit","CTA","Green Line","Ashland/63rd","Pre-2000",41.77886,-87.663766
"Existing Transit","CTA","Green Line","Austin-Green","Pre-2000",41.887293,-87.774135
"Existing Transit","CTA","Green Line","California-Green","Pre-2000",41.88422,-87.696234
"Existing Transit","CTA","Green Line","Central-Green","Pre-2000",41.887389,-87.76565
"Existing Transit","CTA","Green Line","Cicero-Green","Pre-2000",41.886519,-87.744698
"Existing Transit","CTA","Green Line","Conservatory","Pre-2000",41.884904,-87.716523
"Existing Transit","CTA","Green Line","East 63rd-Cottage Grove","Pre-2000",41.780309,-87.605857
"Existing Transit","CTA","Green Line","Garfield-Green","Pre-2000",41.795172,-87.618327
"Existing Transit","CTA","Green Line","Halsted-Green","Pre-2000",41.778943,-87.644244
"Existing Transit","CTA","Green Line","Harlem-Green","Pre-2000",41.886848,-87.803176
"Existing Transit","CTA","Green Line","Indiana","Pre-2000",41.821732,-87.621371
"Existing Transit","CTA","Green Line","Kedzie-Green","Pre-2000",41.884321,-87.706155
"Existing Transit","CTA","Green Line","King Drive","Pre-2000",41.78013,-87.615546
"Existing Transit","CTA","Green Line","Laramie","Pre-2000",41.887163,-87.754986
"Existing Transit","CTA","Green Line","Oak Park-Green","Pre-2000",41.886988,-87.793783
"Existing Transit","CTA","Green Line","Pulaski-Green","Pre-2000",41.885412,-87.725404
"Existing Transit","CTA","Green Line","Ridgeland","Pre-2000",41.887159,-87.783661
"Existing Transit","CTA","Green Line, Purple Line, Pink Line, Orange Line, Brown Line","Adams/Wabash","Pre-2000",41.879507,-87.626037
"Existing Transit","CTA","Orange Line","35th/Archer","Pre-2000",41.829353,-87.680622
"Existing Transit","CTA","Orange Line","Ashland-Orange","Pre-2000",41.839234,-87.665317
"Existing Transit","CTA","Orange Line","Halsted-Orange","Pre-2000",41.84678,-87.648088
"Existing Transit","CTA","Orange Line","Kedzie-Orange","Pre-2000",41.804236,-87.704406
"Existing Transit","CTA","Orange Line","Midway","Pre-2000",41.78661,-87.737875
"Existing Transit","CTA","Orange Line","Pulaski-Orange","Pre-2000",41.799756,-87.724493
"Existing Transit","CTA","Orange Line","Western-Orange","Pre-2000",41.804546,-87.684019
"Existing Transit","CTA","Orange Line, Brown Line, Purple Line, Pink Line, Green Line","State/Lake","Pre-2000",41.88574,-87.627835
"Existing Transit","CTA","Orange Line, Green Line","Roosevelt (Elevated)","Pre-2000",41.867405,-87.62659
"Existing Transit","CTA","Orange Line, Pink Line, Purple Line, Blue Line, Brown Line, Green Line","Clark/Lake (Subway)","Pre-2000",41.885737,-87.630886
"Existing Transit","CTA","Orange Line, Pink Line, Purple Line, Brown Line","LaSalle/Van Buren","Pre-2000",41.8768,-87.631739
"Existing Transit","CTA","Pink Line","18th","Pre-2000",41.857908,-87.669147
"Existing Transit","CTA","Pink Line","54th/Cermak","Pre-2000",41.85177331,-87.75669201
"Existing Transit","CTA","Pink Line","California-Cermak","Pre-2000",41.854109,-87.694774
"Existing Transit","CTA","Pink Line","Central Park","Pre-2000",41.853839,-87.714842
"Existing Transit","CTA","Pink Line","Cicero-Cermak","Pre-2000",41.85182,-87.745336
"Existing Transit","CTA","Pink Line","Damen-Cermak","Pre-2000",41.854517,-87.675975
"Existing Transit","CTA","Pink Line","Kedzie-Cermak","Pre-2000",41.853964,-87.705408
"Existing Transit","CTA","Pink Line","Kostner","Pre-2000",41.853751,-87.733258
"Existing Transit","CTA","Pink Line","Polk","Pre-2000",41.871551,-87.66953
"Existing Transit","CTA","Pink Line","Pulaski-Cermak","Pre-2000",41.853732,-87.724311
"Existing Transit","CTA","Pink Line","Western-Cermak","Pre-2000",41.854225,-87.685129
"Existing Transit","CTA","Pink Line, Green Line","Ashland-Lake","Pre-2000",41.885269,-87.666969
"Existing Transit","CTA","Pink Line, Green Line","Clinton-Green","Pre-2000",41.885678,-87.641782
"Existing Transit","CTA","Pink Line, Green Line, Brown Line, Orange Line, Purple Line","Madison/Wabash","Pre-2000",41.882023,-87.626098
"Existing Transit","CTA","Purple Line","Central-Purple","Pre-2000",42.063987,-87.685617
"Existing Transit","CTA","Purple Line","Davis","Pre-2000",42.04771,-87.683543
"Existing Transit","CTA","Purple Line","Dempster","Pre-2000",42.041655,-87.681602
"Existing Transit","CTA","Purple Line","Foster","Pre-2000",42.05416,-87.68356
"Existing Transit","CTA","Purple Line","Linden","Pre-2000",42.073153,-87.69073
"Existing Transit","CTA","Purple Line","Main","Pre-2000",42.033456,-87.679538
"Existing Transit","CTA","Purple Line","Noyes","Pre-2000",42.058282,-87.683337
"Existing Transit","CTA","Purple Line","South Boulevard","Pre-2000",42.027612,-87.678329
"Existing Transit","CTA","Purple Line, Brown Line","Armitage","Pre-2000",41.918217,-87.652644
"Existing Transit","CTA","Purple Line, Brown Line","Chicago-Brown","Pre-2000",41.89681,-87.635924
"Existing Transit","CTA","Purple Line, Brown Line","Diversey","Pre-2000",41.932732,-87.653131
"Existing Transit","CTA","Purple Line, Brown Line","Merchandise Mart","Pre-2000",41.888969,-87.633924
"Existing Transit","CTA","Purple Line, Brown Line","Sedgwick","Pre-2000",41.910409,-87.639302
"Existing Transit","CTA","Purple Line, Brown Line, Pink Line, Orange Line","Harold Washington Library","Pre-2000",41.876862,-87.628196
"Existing Transit","CTA","Purple Line, Brown Line, Pink Line, Orange Line","Quincy/Wells","Pre-2000",41.878723,-87.63374
"Existing Transit","CTA","Purple Line, Orange Line, Brown Line, Pink Line","Washington/Wells","Pre-2000",41.882695,-87.63378
"Existing Transit","CTA","Purple Line, Red Line, Yellow Line","Howard","Pre-2000",42.019063,-87.672892
"Existing Transit","CTA","Red Line","47th-Red","Pre-2000",41.810318,-87.63094
"Existing Transit","CTA","Red Line","63rd","Pre-2000",41.780536,-87.630952
"Existing Transit","CTA","Red Line","69th","Pre-2000",41.768367,-87.625724
"Existing Transit","CTA","Red Line","79th","Pre-2000",41.750419,-87.625112
"Existing Transit","CTA","Red Line","87th","Pre-2000",41.735372,-87.624717
"Existing Transit","CTA","Red Line","95th","Pre-2000",41.722377,-87.624342
"Existing Transit","CTA","Red Line","Addison-Red","Pre-2000",41.947428,-87.653626
"Existing Transit","CTA","Red Line","Argyle","Pre-2000",41.973453,-87.65853
"Existing Transit","CTA","Red Line","Berwyn","Pre-2000",41.977984,-87.658668
"Existing Transit","CTA","Red Line","Bryn Mawr","Pre-2000",41.983504,-87.65884
"Existing Transit","CTA","Red Line","Cermak-Chinatown","Pre-2000",41.853206,-87.630968
"Existing Transit","CTA","Red Line","Chicago-Red","Pre-2000",41.896671,-87.628176
"Existing Transit","CTA","Red Line","Clark/Division","Pre-2000",41.90392,-87.631412
"Existing Transit","CTA","Red Line","Garfield-Red","Pre-2000",41.79542,-87.631157
"Existing Transit","CTA","Red Line","Grand-Red","Pre-2000",41.891665,-87.628021
"Existing Transit","CTA","Red Line","Granville","Pre-2000",41.993664,-87.659202
"Existing Transit","CTA","Red Line","Harrison","Pre-2000",41.874039,-87.627479
"Existing Transit","CTA","Red Line","Jackson-Red","Pre-2000",41.878153,-87.627596
"Existing Transit","CTA","Red Line","Jarvis","Pre-2000",42.015876,-87.669092
"Existing Transit","CTA","Red Line","Lake","Pre-2000",41.884809,-87.627813
"Existing Transit","CTA","Red Line","Lawrence","Pre-2000",41.969139,-87.658493
"Existing Transit","CTA","Red Line","Loyola","Pre-2000",42.001073,-87.661061
"Existing Transit","CTA","Red Line","Monroe-Red","Pre-2000",41.880745,-87.627696
"Existing Transit","CTA","Red Line","Morse","Pre-2000",42.008362,-87.665909
"Existing Transit","CTA","Red Line","North/Clybourn","Pre-2000",41.910655,-87.649177
"Existing Transit","CTA","Red Line","Roosevelt (Subway)","Pre-2000",41.867368,-87.627402
"Existing Transit","CTA","Red Line","Sheridan","Pre-2000",41.953775,-87.654929
"Existing Transit","CTA","Red Line","Sox-35th","Pre-2000",41.831191,-87.630636
"Existing Transit","CTA","Red Line","Thorndale","Pre-2000",41.990259,-87.659076
"Existing Transit","CTA","Red Line","Wilson","Pre-2000",41.964273,-87.657588
"Existing Transit","CTA","Yellow Line","Skokie","Pre-2000",42.038951,-87.751919
"Existing Transit","DART","DART RAIL BLUE LINE(BLUE)","DOWNTOWN GARLAND STATION","2002",32.916292,-96.635756
"Existing Transit","DART","DART RAIL BLUE LINE(BLUE)","FOREST / JUPITER STATION","2002",32.908313,-96.679207
"Existing Transit","DART","DART RAIL BLUE LINE(BLUE)","ILLINOIS TC/STATION","Pre-2000",32.723278,-96.804978
"Existing Transit","DART","DART RAIL BLUE LINE(BLUE)","KIEST STATION","Pre-2000",32.707489,-96.801094
"Existing Transit","DART","DART RAIL BLUE LINE(BLUE)","LAKE HIGHLANDS RAIL STATION","2002",32.879729,-96.730376
"Existing Transit","DART","DART RAIL BLUE LINE(BLUE)","LBJ / SKILLMAN STATION","2002",32.897796,-96.711823
"Existing Transit","DART","DART RAIL BLUE LINE(BLUE)","LEDBETTER STATION","Pre-2000",32.683296,-96.788597
"Existing Transit","DART","DART RAIL BLUE LINE(BLUE)","MORRELL STATION","Pre-2000",32.740135,-96.80272
"Existing Transit","DART","DART RAIL BLUE LINE(BLUE)","VA MEDICAL CENTER STATION","Pre-2000",32.693912,-96.792504
"Existing Transit","DART","DART RAIL BLUE LINE(BLUE)","WHITE ROCK RAIL STATION","2001",32.854946,-96.734459
"Existing Transit","DART","DART RAIL BLUE LINE(BLUE), DART RAIL GREEN LINE(GREEN), DART RAIL ORANGE LINE(ORANGE), DART RAIL RED LINE(RED)","AKARD STATION","Pre-2000",32.781839,-96.800726
"Existing Transit","DART","DART RAIL BLUE LINE(BLUE), DART RAIL RED LINE(RED)","CONVENTION CENTER STATION","Pre-2000",32.772579,-96.803174
"Existing Transit","DART","DART RAIL BLUE LINE(BLUE), DART RAIL RED LINE(RED)","SANTA FE JUNCTION","Pre-2000",32.764739,-96.787368
"Existing Transit","DART","DART RAIL GREEN LINE(GREEN)","BAYLOR STATION","2009",32.786495,-96.782132
"Existing Transit","DART","DART RAIL GREEN LINE(GREEN)","BUCKNER STATION","2010",32.717607,-96.683832
"Existing Transit","DART","DART RAIL GREEN LINE(GREEN)","DEEP ELLUM STATION","2009",32.786144,-96.788897
"Existing Transit","DART","DART RAIL GREEN LINE(GREEN)","DOWNTOWN CARROLLTON STATION","2010",32.954362,-96.908481
"Existing Transit","DART","DART RAIL GREEN LINE(GREEN)","FAIR PARK STATION","2009",32.782049,-96.766046
"Existing Transit","DART","DART RAIL GREEN LINE(GREEN)","FARMERS BRANCH STATION","2010",32.922445,-96.896572
"Existing Transit","DART","DART RAIL GREEN LINE(GREEN)","HATCHER STATION","2010",32.76634,-96.74172
"Existing Transit","DART","DART RAIL GREEN LINE(GREEN)","LAKE JUNE STATION","2010",32.732236,-96.709593
"Existing Transit","DART","DART RAIL GREEN LINE(GREEN)","LAWNVIEW STATION","2010",32.765562,-96.720925
"Existing Transit","DART","DART RAIL GREEN LINE(GREEN)","MLK STATION","2010",32.773793,-96.764651
"Existing Transit","DART","DART RAIL GREEN LINE(GREEN)","NORTH CARROLLTON STATION","2010",32.990958,-96.93644
"Existing Transit","DART","DART RAIL GREEN LINE(GREEN)","ROYAL LANE STATION","2010",32.896339,-96.888455
"Existing Transit","DART","DART RAIL GREEN LINE(GREEN)","WALNUT HILL/DENTON STATION","2010",32.881923,-96.883875
"Existing Transit","DART","DART RAIL GREEN LINE(GREEN), DART RAIL ORANGE LINE(ORANGE)","BURBANK STATION","2010",32.842338,-96.860801
"Existing Transit","DART","DART RAIL GREEN LINE(GREEN), DART RAIL ORANGE LINE(ORANGE)","INWOOD/LOVE FIELD STATION","2010",32.823166,-96.833512
"Existing Transit","DART","DART RAIL GREEN LINE(GREEN), DART RAIL ORANGE LINE(ORANGE)","MARKET CENTER STATION","2010",32.804751,-96.823348
"Existing Transit","DART","DART RAIL GREEN LINE(GREEN), DART RAIL ORANGE LINE(ORANGE)","PARKLAND STATION","2010",32.812661,-96.832957
"Existing Transit","DART","DART RAIL ORANGE LINE(ORANGE), DART RAIL BLUE LINE(BLUE), DART RAIL RED LINE(RED)","MOCKINGBIRD STATION","Pre-2000",32.837806,-96.774666
"Existing Transit","DART","DART RAIL ORANGE LINE(ORANGE), DART RAIL GREEN LINE(GREEN)","BACHMAN STATION","2010",32.854818,-96.877044
"Existing Transit","DART","DART RAIL ORANGE LINE(ORANGE), DART RAIL GREEN LINE(GREEN), DART RAIL BLUE LINE(BLUE), DART RAIL RED LINE(RED)","ST PAUL STATION","Pre-2000",32.784686,-96.797196
"Existing Transit","DART","DART RAIL ORANGE LINE(ORANGE), DART RAIL RED LINE(RED)","FOREST LN STATION","2002",32.908532,-96.762691
"Existing Transit","DART","DART RAIL ORANGE LINE(ORANGE), DART RAIL RED LINE(RED)","LBJ / CENTRAL STATION","2002",32.918701,-96.751625
"Existing Transit","DART","DART RAIL ORANGE LINE(ORANGE), DART RAIL RED LINE(RED)","LOVERS STATION","Pre-2000",32.849157,-96.771511
"Existing Transit","DART","DART RAIL ORANGE LINE(ORANGE), DART RAIL RED LINE(RED)","PARKER ROAD STATION","2002",33.033752,-96.700974
"Existing Transit","DART","DART RAIL ORANGE LINE(ORANGE), DART RAIL RED LINE(RED)","SPRING VALLEY STATION","2002",32.940673,-96.737748
"Existing Transit","DART","DART RAIL ORANGE LINE(ORANGE), DART RAIL RED LINE(RED), DART RAIL BLUE LINE(BLUE)","CITYPLACE STATION","Pre-2000",32.805732,-96.792832
"Existing Transit","DART","DART RAIL ORANGE LINE(ORANGE), DART RAIL RED LINE(RED), DART RAIL BLUE LINE(BLUE), DART RAIL GREEN LINE(GREEN)","WEST END STATION","Pre-2000",32.780838,-96.805569
"Existing Transit","DART","DART RAIL RED LINE(RED)","HAMPTON STATION","Pre-2000",32.72644,-96.854996
"Existing Transit","DART","DART RAIL RED LINE(RED)","TYLER VERNON STATION","Pre-2000",32.733274,-96.838305
"Existing Transit","DART","DART RAIL RED LINE(RED)","WESTMORELAND STATION","Pre-2000",32.71994,-96.871605
"Existing Transit","DART","DART RAIL RED LINE(RED)","ZOO STATION","Pre-2000",32.741005,-96.812844
"Existing Transit","DART","DART RAIL RED LINE(RED), DART RAIL BLUE LINE(BLUE)","CEDARS STATION","Pre-2000",32.768836,-96.793412
"Existing Transit","DART","DART RAIL RED LINE(RED), DART RAIL BLUE LINE(BLUE)","CORINTH RAIL STATION","Pre-2000",32.74831,-96.798302
"Existing Transit","DART","DART RAIL RED LINE(RED), DART RAIL BLUE LINE(BLUE)","UNION STATION","Pre-2000",32.775987,-96.808031
"Existing Transit","DART","DART RAIL RED LINE(RED), DART RAIL BLUE LINE(BLUE), DART RAIL GREEN LINE(GREEN), DART RAIL ORANGE LINE(ORANGE)","PEARL STATION","Pre-2000",32.786423,-96.794243
"Existing Transit","DART","DART RAIL RED LINE(RED), DART RAIL ORANGE LINE(ORANGE)","ARAPAHO CENTER STATION","2002",32.962516,-96.722474
"Existing Transit","DART","DART RAIL RED LINE(RED), DART RAIL ORANGE LINE(ORANGE)","BUSH TURNPIKE STATION WEST","2002",33.003227,-96.703713
"Existing Transit","DART","DART RAIL RED LINE(RED), DART RAIL ORANGE LINE(ORANGE)","DOWNTOWN PLANO STATION","2002",33.021621,-96.700707
"Existing Transit","DART","DART RAIL RED LINE(RED), DART RAIL ORANGE LINE(ORANGE)","GALATYN PARK STATION","2002",32.985073,-96.710803
"Existing Transit","DART","DART RAIL RED LINE(RED), DART RAIL ORANGE LINE(ORANGE)","PARK LANE STATION","Pre-2000",32.872791,-96.765717
"Existing Transit","DART","DART RAIL RED LINE(RED), DART RAIL ORANGE LINE(ORANGE)","WALNUT HILL STATION","2002",32.883106,-96.764771
"Existing Transit","DART","DART RAIL RED LINE(RED), TRINITY RAILWAY(TRE), DART RAIL ORANGE LINE(ORANGE), DART RAIL GREEN LINE(GREEN)","VICTORY STATION","2003",32.789903,-96.812363
"Existing Transit","DART","M-LINE STREETCAR(825)","CITYPLACE WEST @ US 75 - S - MB","Pre-2000",32.805564,-96.793816
"Existing Transit","DART","M-LINE STREETCAR(825)","LEMMON @ COLE ","Pre-2000",32.806713,-96.799416
"Existing Transit","DART","M-LINE STREETCAR(825)","MCKINNEY @ ALLEN ","Pre-2000",32.799462,-96.800865
"Existing Transit","DART","M-LINE STREETCAR(825)","MCKINNEY @ BLACKBURN ","Pre-2000",32.808632,-96.795895
"Existing Transit","DART","M-LINE STREETCAR(825)","MCKINNEY @ BOLL","Pre-2000",32.797221,-96.801444
"Existing Transit","DART","M-LINE STREETCAR(825)","MCKINNEY @ BOWEN ","Pre-2000",32.802555,-96.800499
"Existing Transit","DART","M-LINE STREETCAR(825)","MCKINNEY @ FAIRMOUNT","Pre-2000",32.794963,-96.802124
"Existing Transit","DART","M-LINE STREETCAR(825)","MCKINNEY @ HALL","Pre-2000",32.804092,-96.7995
"Existing Transit","DART","M-LINE STREETCAR(825)","MCKINNEY @ HARWOOD","Pre-2000",32.790527,-96.803612
"Existing Transit","DART","M-LINE STREETCAR(825)","MCKINNEY @ LEMMON ","Pre-2000",32.80657,-96.797828
"Existing Transit","DART","M-LINE STREETCAR(825)","MCKINNEY @ MAPLE-ROUTH ","Pre-2000",32.793441,-96.80259
"Existing Transit","DART","M-LINE STREETCAR(825)","MCKINNEY @ OLIVE","Pre-2000",32.791988,-96.803208
"Existing Transit","DART","M-LINE STREETCAR(825)","MCKINNEY @ PEARL","Pre-2000",32.792625,-96.80288
"Existing Transit","DART","M-LINE STREETCAR(825)","MCKINNEY @ ROUTH ","Pre-2000",32.796146,-96.801781
"Existing Transit","DART","M-LINE STREETCAR(825)","MCKINNEY @ SNEED","Pre-2000",32.801807,-96.800965
"Existing Transit","DART","M-LINE STREETCAR(825)","MCKINNEY @ WORTHINGTON","Pre-2000",32.798278,-96.801165
"Existing Transit","DART","M-LINE STREETCAR(825)","ML ONLY BLACKBURN @ COLE","Pre-2000",32.80926,-96.79625
"Existing Transit","DART","M-LINE STREETCAR(825)","ML ONLY COLE/Allen ","Pre-2000",32.801899,-96.802402
"Existing Transit","DART","M-LINE STREETCAR(825)","ML ONLY COLE/Bowen","Pre-2000",32.803585,-96.801339
"Existing Transit","DART","M-LINE STREETCAR(825)","ML ONLY COLE/HALL ","Pre-2000",32.805136,-96.800308
"Existing Transit","DART","M-LINE STREETCAR(825)","ML ONLY COLE/LEMMON","Pre-2000",32.808408,-96.798312
"Existing Transit","DART","M-LINE STREETCAR(825)","ST PAUL @ MUNGER - S - FS","Pre-2000",32.787422,-96.801804
"Existing Transit","DART","M-LINE STREETCAR(825)","ST PAUL @ ROSS - S - NS","Pre-2000",32.785855,-96.800022
"Existing Transit","DART","M-LINE STREETCAR(825)","ST PAUL @ WOODALL RODGERS - S - FS","Pre-2000",32.7878,-96.802396
"Existing Transit","DART","TRINITY RAILWAY(TRE)","CENTREPORT STATION","Pre-2000",32.816982,-97.053509
"Existing Transit","DART","TRINITY RAILWAY(TRE)","FT WORTH INTERMODAL TRANSIT CTR","Pre-2000",32.749862,-97.323193
"Existing Transit","DART","TRINITY RAILWAY(TRE)","HURST/BELL STATION","Pre-2000",32.804583,-97.155753
"Existing Transit","DART","TRINITY RAILWAY(TRE)","MEDICAL/MARKET CTR STATION","Pre-2000",32.810386,-96.841942
"Existing Transit","DART","TRINITY RAILWAY(TRE)","RICHLAND HILLS STATION","Pre-2000",32.799468,-97.223415
"Existing Transit","DART","TRINITY RAILWAY(TRE)","SOUTH IRVING STATION","Pre-2000",32.814655,-96.948204
"Existing Transit","DART","TRINITY RAILWAY(TRE)","T&P STATION","Pre-2000",32.745194,-97.328195
"Existing Transit","DART","TRINITY RAILWAY(TRE)","UNION STATION","Pre-2000",32.775249,-96.807642
"Existing Transit","DART","TRINITY RAILWAY(TRE)","WEST IRVING STATION","Pre-2000",32.816314,-97.007874
"Existing Transit","DART, DCTA","TRINITY RAILWAY(TRE), A-Train","MedPark","2011",33.1817094437395,-97.0889443159103
"Existing Transit","DART, DCTA","TRINITY RAILWAY(TRE), A-Train","Old Town","2011",33.0473604183261,-96.9861567020416
"Existing Transit","DCTA, DART","A-Train, DART RAIL GREEN LINE(GREEN)","TRINITY MILLS RAIL STATION","2011",32.979915,-96.92562
"Existing Transit","DCTA, DART","A-Train, TRINITY RAILWAY(TRE)","Downtown Denton Transit Center","2011",33.2141414558717,-97.1264362335205
"Existing Transit","DCTA, DART","A-Train, TRINITY RAILWAY(TRE)","Hebron","2011",33.0100940179592,-96.9583904743195
"Existing Transit","DCTA, DART","A-Train, TRINITY RAILWAY(TRE)","Highland Village","2011",33.0834064788155,-97.0259928703308
"Existing Transit","Detroit Transportation Corporation","People Mover","Bricktown","Pre-2000",42.3331295446107,-83.0411911010742
"Existing Transit","Detroit Transportation Corporation","People Mover","Broadway","Pre-2000",42.3354295518068,-83.0482131242752
"Existing Transit","Detroit Transportation Corporation","People Mover","Cadillac Center","Pre-2000",42.333756106631,-83.0462068319321
"Existing Transit","Detroit Transportation Corporation","People Mover","Fort/Cass","Pre-2000",42.3295524697464,-83.0510830879211
"Existing Transit","Detroit Transportation Corporation","People Mover","Grand Circus Park","Pre-2000",42.3360640217482,-83.0505627393723
"Existing Transit","Detroit Transportation Corporation","People Mover","Greektown","Pre-2000",42.3346919724542,-83.0424892902374
"Existing Transit","Detroit Transportation Corporation","People Mover","Joe Louis Arena","Pre-2000",42.3252375012266,-83.0526387691498
"Existing Transit","Detroit Transportation Corporation","People Mover","Lamed St ","Pre-2000",42.3286561863022,-83.0466949939728
"Existing Transit","Detroit Transportation Corporation","People Mover","Michigan Ave","Pre-2000",42.3313608611791,-83.052134513855
"Existing Transit","Detroit Transportation Corporation","People Mover","Millender Center","Pre-2000",42.3302623488979,-83.0419850349426
"Existing Transit","Detroit Transportation Corporation","People Mover","Renaissance Center","Pre-2000",42.330123546342,-83.0401986837387
"Existing Transit","Detroit Transportation Corporation","People Mover","Times Square","Pre-2000",42.3336767953279,-83.052134513855
"Existing Transit","DTOP ","Departmento De Transportacion Y Obras Publicas","Bayamon Centro","2005",18.4003532146637,-66.1537885665894
"Existing Transit","DTOP ","Departmento De Transportacion Y Obras Publicas","Centro Medico","2005",18.3915164752091,-66.0748994350433
"Existing Transit","DTOP ","Departmento De Transportacion Y Obras Publicas","Cupey","2005",18.3905034790011,-66.0632157325745
"Existing Transit","DTOP ","Departmento De Transportacion Y Obras Publicas","Deportivo","2005",18.3943365438398,-66.1493146419525
"Existing Transit","DTOP ","Departmento De Transportacion Y Obras Publicas","Domenech","2005",18.4156179192863,-66.0563921928406
"Existing Transit","DTOP ","Departmento De Transportacion Y Obras Publicas","Hato Rey","2005",18.4294460942733,-66.060243844986
"Existing Transit","DTOP ","Departmento De Transportacion Y Obras Publicas","Jardines","2005",18.3941176592986,-66.1282539367676
"Existing Transit","DTOP ","Departmento De Transportacion Y Obras Publicas","Los Lomas","2005",18.3907936343024,-66.0939002037048
"Existing Transit","DTOP ","Departmento De Transportacion Y Obras Publicas","Martinez Nadal","2005",18.3911499647057,-66.1016517877579
"Existing Transit","DTOP ","Departmento De Transportacion Y Obras Publicas","Pinero","2005",18.4109098769893,-66.0554373264313
"Existing Transit","DTOP ","Departmento De Transportacion Y Obras Publicas","Rio Piedras","2005",18.399610050117,-66.0521328449249
"Existing Transit","DTOP ","Departmento De Transportacion Y Obras Publicas","Roosevelt","2005",18.4232879350191,-66.0589349269867
"Existing Transit","DTOP ","Departmento De Transportacion Y Obras Publicas","Sagrado Corazon","2005",18.4365302493027,-66.0608983039856
"Existing Transit","DTOP ","Departmento De Transportacion Y Obras Publicas","San Francisco","2005",18.3907681821025,-66.0826671123505
"Existing Transit","DTOP ","Departmento De Transportacion Y Obras Publicas","Torrimar","2005",18.391862623302,-66.1190807819366
"Existing Transit","DTOP ","Departmento De Transportacion Y Obras Publicas","Universidad","2005",18.4056774367361,-66.0515642166138
"Existing Transit","GCRTA","BRT(HealthLine)","ADELBERT STATION","2008",41.507011,-81.60804
"Existing Transit","GCRTA","BRT(HealthLine)","E ROADWAY & SUPERIOR AVE STATION","2008",41.500519,-81.693237
"Existing Transit","GCRTA","BRT(HealthLine)","EUCLID AV & CORNELL STATION","2008",41.508259,-81.606522
"Existing Transit","GCRTA","BRT(HealthLine)","EUCLID AV & E 100TH STATION","2008",41.503704,-81.618484
"Existing Transit","GCRTA","BRT(HealthLine)","EUCLID AV & E 105TH STATION","2008",41.503792,-81.61557
"Existing Transit","GCRTA","BRT(HealthLine)","EUCLID AV & E 115TH STATION","2008",41.510174,-81.603493
"Existing Transit","GCRTA","BRT(HealthLine)","EUCLID AV & E 118TH STATION","2008",41.512077,-81.601723
"Existing Transit","GCRTA","BRT(HealthLine)","EUCLID AV & E 89TH STATION","2008",41.503502,-81.624672
"Existing Transit","GCRTA","BRT(HealthLine)","EUCLID AV & E 93RD STATION","2008",41.503582,-81.621643
"Existing Transit","GCRTA","BRT(HealthLine)","Euclid Ave & Belmore Ave","2008",41.527187,-81.585068
"Existing Transit","GCRTA","BRT(HealthLine)","Euclid Ave & Debra Ann Ln","2008",41.528641,-81.584229
"Existing Transit","GCRTA","BRT(HealthLine)","Euclid Ave & Delmont Ave","2008",41.51889,-81.594246
"Existing Transit","GCRTA","BRT(HealthLine)","EUCLID AVE & E 123RD ST STATION","2008",41.513817,-81.599533
"Existing Transit","GCRTA","BRT(HealthLine)","EUCLID AVE & E 14TH ST STATION","2008",41.500828,-81.682961
"Existing Transit","GCRTA","BRT(HealthLine)","EUCLID AVE & E 19TH ST STATION","2008",41.501514,-81.677849
"Existing Transit","GCRTA","BRT(HealthLine)","EUCLID AVE & E 24TH ST STATION","2008",41.502045,-81.672791
"Existing Transit","GCRTA","BRT(HealthLine)","EUCLID AVE & E 2ND ST STATION","2008",41.499561,-81.692345
"Existing Transit","GCRTA","BRT(HealthLine)","EUCLID AVE & E 30TH ST STATION","2008",41.502598,-81.667732
"Existing Transit","GCRTA","BRT(HealthLine)","EUCLID AVE & E 36TH ST STATION","2008",41.503166,-81.662926
"Existing Transit","GCRTA","BRT(HealthLine)","EUCLID AVE & E 40TH ST STATION","2008",41.503689,-81.658218
"Existing Transit","GCRTA","BRT(HealthLine)","EUCLID AVE & E 51ST ST STATION","2008",41.504181,-81.653801
"Existing Transit","GCRTA","BRT(HealthLine)","EUCLID AVE & E 59TH ST STATION","2008",41.504539,-81.649422
"Existing Transit","GCRTA","BRT(HealthLine)","EUCLID AVE & E 66TH ST STATION","2008",41.504456,-81.6446
"Existing Transit","GCRTA","BRT(HealthLine)","EUCLID AVE & E 6TH ST STATION","2008",41.500008,-81.689148
"Existing Transit","GCRTA","BRT(HealthLine)","EUCLID AVE & E 71ST ST STATION","2008",41.504265,-81.63974
"Existing Transit","GCRTA","BRT(HealthLine)","EUCLID AVE & E 79TH ST STATION","2008",41.503944,-81.633949
"Existing Transit","GCRTA","BRT(HealthLine)","EUCLID AVE & E 83RD ST STATION","2008",41.50351,-81.629509
"Existing Transit","GCRTA","BRT(HealthLine)","EUCLID AVE & E 9TH ST STATION","2008",41.50034,-81.686821
"Existing Transit","GCRTA","BRT(HealthLine)","Euclid Ave & Eddy Rd","2008",41.525711,-81.587212
"Existing Transit","GCRTA","BRT(HealthLine)","Euclid Ave & Emily St","2008",41.521961,-81.591042
"Existing Transit","GCRTA","BRT(HealthLine)","Euclid Ave & Garfield Rd","2008",41.522171,-81.590309
"Existing Transit","GCRTA","BRT(HealthLine)","Euclid Ave & Lakefront Rd","2008",41.526794,-81.586098
"Existing Transit","GCRTA","BRT(HealthLine)","Euclid Ave & Lakeview Ave","2008",41.516617,-81.596016
"Existing Transit","GCRTA","BRT(HealthLine)","EUCLID AVE & ONTARIO ST STATION","2008",41.498867,-81.693649
"Existing Transit","GCRTA","BRT(HealthLine)","Euclid Ave & Roxbury Rd","2008",41.51907,-81.593475
"Existing Transit","GCRTA","BRT(HealthLine)","Euclid Ave & Superior Ave","2008",41.523323,-81.589607
"Existing Transit","GCRTA","BRT(HealthLine)","Euclid Ave & Wellesley Ave","2008",41.525597,-81.586731
"Existing Transit","GCRTA","BRT(HealthLine)","EUCLID AV & STOKES BLVD STATION","2008",41.503922,-81.612801
"Existing Transit","GCRTA","BRT(HealthLine)","LOUIS STOKES RTS STOP #1","2008",41.53154,-81.584145
"Existing Transit","GCRTA","BRT(HealthLine)","UNIVERSITY RTS LOOP","2008",41.49934,-81.607048
"Existing Transit","GCRTA","BRT(HealthLine)","W ROADWAY & SUPERIOR AVE STATION","2008",41.499626,-81.694847
"Existing Transit","GCRTA","Heavy Rail(Red Line)","AIRPORT RAPID","Pre-2000",41.410519,-81.836525
"Existing Transit","GCRTA","Heavy Rail(Red Line)","BROOKPARK RAPID","Pre-2000",41.420349,-81.823135
"Existing Transit","GCRTA","Heavy Rail(Red Line)","E105 - QUINCY RAPID","Pre-2000",41.494102,-81.614792
"Existing Transit","GCRTA","Heavy Rail(Red Line)","E79TH RAPID","Pre-2000",41.485706,-81.633209
"Existing Transit","GCRTA","Heavy Rail(Red Line)","EUCLID - E 120TH RAPID","Pre-2000",41.512306,-81.600479
"Existing Transit","GCRTA","Heavy Rail(Red Line)","PURITAS RAPID","Pre-2000",41.441296,-81.805695
"Existing Transit","GCRTA","Heavy Rail(Red Line)","STOKES WINDERMERE RTS","Pre-2000",41.531418,-81.584595
"Existing Transit","GCRTA","Heavy Rail(Red Line)","SUPERIOR RAPID","Pre-2000",41.52343,-81.592148
"Existing Transit","GCRTA","Heavy Rail(Red Line)","TRISKETT RAPID","Pre-2000",41.465866,-81.785309
"Existing Transit","GCRTA","Heavy Rail(Red Line)","UNIVERSITY CEDAR RAPID","Pre-2000",41.499973,-81.605385
"Existing Transit","GCRTA","Heavy Rail(Red Line)","W 117TH - MADISON RAPID","Pre-2000",41.475697,-81.768791
"Existing Transit","GCRTA","Heavy Rail(Red Line)","W 25TH RAPID","Pre-2000",41.484486,-81.701355
"Existing Transit","GCRTA","Heavy Rail(Red Line)","W 65  RAPID","Pre-2000",41.476913,-81.728775
"Existing Transit","GCRTA","Heavy Rail(Red Line)","WEST BLVD CUDELL RAPID","Pre-2000",41.480293,-81.75341
"Existing Transit","GCRTA","Heavy Rail(Red Line)","WESTPARK RAPID","Pre-2000",41.456631,-81.792969
"Existing Transit","GCRTA","Heavy Rail(Red Line), Light Rail(Blue/Green/Waterfront Line)","E 34TH RAPID","Pre-2000",41.48637,-81.665703
"Existing Transit","GCRTA","Light Rail(Blue/Green/Waterfront Line)","BLUE LINE & ASHBY RD RTS","2008",41.468624,-81.572754
"Existing Transit","GCRTA","Light Rail(Blue/Green/Waterfront Line)","BLUE LINE & AVALON RD RTS","2008",41.466522,-81.559227
"Existing Transit","GCRTA","Light Rail(Blue/Green/Waterfront Line)","BLUE LINE & DREXMORE RD RTS","2008",41.48217,-81.588135
"Existing Transit","GCRTA","Light Rail(Blue/Green/Waterfront Line)","BLUE LINE & FARNSLEIGH RD RTS","2008",41.466522,-81.539307
"Existing Transit","GCRTA","Light Rail(Blue/Green/Waterfront Line)","BLUE LINE & KENMORE RD RTS","2008",41.466637,-81.553192
"Existing Transit","GCRTA","Light Rail(Blue/Green/Waterfront Line)","BLUE LINE & LEE RD RTS","2008",41.466599,-81.565338
"Existing Transit","GCRTA","Light Rail(Blue/Green/Waterfront Line)","BLUE LINE & LYNNFIELD RD RTS","2008",41.466564,-81.546738
"Existing Transit","GCRTA","Light Rail(Blue/Green/Waterfront Line)","BLUE LINE & ONAWAY RD RTS","2008",41.471962,-81.5765
"Existing Transit","GCRTA","Light Rail(Blue/Green/Waterfront Line)","BLUE LINE & SOUTHINGTON RD RTS","2008",41.47578,-81.581017
"Existing Transit","GCRTA","Light Rail(Blue/Green/Waterfront Line)","BLUE LINE & SOUTH WOODLAND RD RTS","2008",41.479015,-81.584648
"Existing Transit","GCRTA","Light Rail(Blue/Green/Waterfront Line)","BLUE LINE & VAN AKEN BLVD RTS","2008",41.465233,-81.537193
"Existing Transit","GCRTA","Light Rail(Blue/Green/Waterfront Line)","E 116TH ST RTS","2008",41.484142,-81.603714
"Existing Transit","GCRTA","Light Rail(Blue/Green/Waterfront Line)","E 79TH BLUE/GREEN RAPID","2008",41.480705,-81.633095
"Existing Transit","GCRTA","Light Rail(Blue/Green/Waterfront Line)","FLATS EAST BANK RTS","Pre-2000",41.499729,-81.703918
"Existing Transit","GCRTA","Light Rail(Blue/Green/Waterfront Line)","GREEN LINE & ATTLEBORO RD RTS","2008",41.478867,-81.558212
"Existing Transit","GCRTA","Light Rail(Blue/Green/Waterfront Line)","GREEN LINE & BELVOIR BLVD RTS","2008",41.478523,-81.527008
"Existing Transit","GCRTA","Light Rail(Blue/Green/Waterfront Line)","GREEN LINE & COURTLAND BLVD RTS","2008",41.478531,-81.542969
"Existing Transit","GCRTA","Light Rail(Blue/Green/Waterfront Line)","GREEN LINE & COVENTRY RD RTS","2008",41.483242,-81.584015
"Existing Transit","GCRTA","Light Rail(Blue/Green/Waterfront Line)","GREEN LINE & EATON RD RTS","2008",41.478512,-81.549675
"Existing Transit","GCRTA","Light Rail(Blue/Green/Waterfront Line)","GREEN LINE & GREEN RD RTS","2008",41.478493,-81.517296
"Existing Transit","GCRTA","Light Rail(Blue/Green/Waterfront Line)","GREEN LINE & LEE RD RTS","2008",41.480831,-81.564972
"Existing Transit","GCRTA","Light Rail(Blue/Green/Waterfront Line)","GREEN LINE & SOUTHINGTON RD RTS","2008",41.482391,-81.577385
"Existing Transit","GCRTA","Light Rail(Blue/Green/Waterfront Line)","GREEN LINE & SOUTH PARK BLVD RTS","2008",41.481689,-81.571632
"Existing Transit","GCRTA","Light Rail(Blue/Green/Waterfront Line)","GREEN LINE & WARRENSVILLE CTR RTS","2008",41.478497,-81.53656
"Existing Transit","GCRTA","Light Rail(Blue/Green/Waterfront Line)","GREEN LINE & WEST GREEN RD RTS","2008",41.478493,-81.51857
"Existing Transit","GCRTA","Light Rail(Blue/Green/Waterfront Line)","NORTH COAST RTS","Pre-2000",41.50671,-81.692757
"Existing Transit","GCRTA","Light Rail(Blue/Green/Waterfront Line)","SETTLERS LANDING STATION","Pre-2000",41.496403,-81.700226
"Existing Transit","GCRTA","Light Rail(Blue/Green/Waterfront Line)","SHAKER SQUARE RTS","2008",41.483978,-81.591446
"Existing Transit","GCRTA","Light Rail(Blue/Green/Waterfront Line)","SOUTH HARBOR STATION","Pre-2000",41.509838,-81.686653
"Existing Transit","GCRTA","Light Rail(Blue/Green/Waterfront Line)","W 3RD ST RTS","Pre-2000",41.503647,-81.699471
"Existing Transit","GCRTA","Light Rail(Blue/Green/Waterfront Line)","WOODHILL RD RTS","2008",41.482834,-81.61808
"Existing Transit","GCRTA","Light Rail(Blue/Green/Waterfront Line), Heavy Rail(Red Line)","E 55TH RAPID EASTBOUND","2008",41.480572,-81.651848
"Existing Transit","GCRTA","Light Rail(Blue/Green/Waterfront Line), Heavy Rail(Red Line)","TOWER CITY RAIL","2008",41.497234,-81.694107
"Existing Transit","Golden Gate Ferry","San Francisco / Larkspur","Larkspur","Pre-2000",37.9455469967055,-122.509188652039
"Existing Transit","Hampton Roads Transit (HRT)","ELIZABETH RIVER FERRY(90)","FERRY STOP - HIGH ST","Pre-2000",36.83549,-76.29686
"Existing Transit","Hampton Roads Transit (HRT)","ELIZABETH RIVER FERRY(90)","FERRY STOP - NORTH LANDING","Pre-2000",36.83916,-76.29678
"Existing Transit","Hampton Roads Transit (HRT)","ELIZABETH RIVER FERRY(90)","FERRY STOP - WATERSIDE","Pre-2000",36.84403,-76.28941
"Existing Transit","Hampton Roads Transit (HRT)","The Tide","Balentine/Broad Creek","2011",36.8461972245893,-76.2531906366348
"Existing Transit","Hampton Roads Transit (HRT)","The Tide","Civic Plaza","2011",36.8455275346459,-76.285452246666
"Existing Transit","Hampton Roads Transit (HRT)","The Tide","EVMC/Ft. Norfolk Station","2011",36.8590854666507,-76.3041043281555
"Existing Transit","Hampton Roads Transit (HRT)","The Tide","Harbor Park","2011",36.8439112395642,-76.277888417244
"Existing Transit","Hampton Roads Transit (HRT)","The Tide","Ingleside Road","2011",36.8427413898062,-76.2350428104401
"Existing Transit","Hampton Roads Transit (HRT)","The Tide","MacArthur Square","2011",36.8470386215885,-76.2900736927986
"Existing Transit","Hampton Roads Transit (HRT)","The Tide","Military Highway","2011",36.8414684870784,-76.2129253149033
"Existing Transit","Hampton Roads Transit (HRT)","The Tide","Monticello","2011",36.8510372771837,-76.2889552116394
"Existing Transit","Hampton Roads Transit (HRT)","The Tide","Newtown Road","2011",36.8410359529137,-76.1898690462112
"Existing Transit","Hampton Roads Transit (HRT)","The Tide","NSU","2011",36.8458859912105,-76.2691175937653
"Existing Transit","Hampton Roads Transit (HRT)","The Tide","York Street/Freemason&#8206;","2011",36.8535612806062,-76.294110417366
"Existing Transit","Harbor Bay Ferry","Harbor Bay Isle / San Francisco","Harbor Bay Isle","Pre-2000",37.736531,-122.256964
"Existing Transit","HART","Teco Line Streetcar System","Cadrecha Plaza Station","2002",27.9606752423704,-82.4455153942108
"Existing Transit","HART","Teco Line Streetcar System","Centennial Park Station","2002",27.9610353470516,-82.43726760149
"Existing Transit","HART","Teco Line Streetcar System","Cumberland Avenue Station","2002",27.9457369470506,-82.4455851316452
"Existing Transit","HART","Teco Line Streetcar System","Dick Greco Plaza/ Transportation Center","2002",27.9415571713717,-82.4548253417015
"Existing Transit","HART","Teco Line Streetcar System","HSBC Station","2002",27.9419031226636,-82.4519875645638
"Existing Transit","HART","Teco Line Streetcar System","Port Authority Station","2002",27.9515798317276,-82.4454107880592
"Existing Transit","HART","Teco Line Streetcar System","Streetcar Society Station","2002",27.9610566690017,-82.4432891607285
"Existing Transit","HART","Teco Line Streetcar System","Tampa Bay Federal Credit Union Stat","2002",27.9610424543688,-82.4412426352501
"Existing Transit","HART","Teco Line Streetcar System","Tampa Tribune Station","2002",27.9434219778966,-82.4485033750534
"Existing Transit","HART","Teco Line Streetcar System","Whiting Station","2002",27.9454502442486,-82.4569201469421
"Existing Transit","HART","Teco Line Streetcar System","York Street Station","2002",27.9481727054453,-82.4455180764198
"Existing Transit","JTA ","Skyway","Central","Pre-2000",30.327,-81.6623
"Existing Transit","JTA ","Skyway","Convention Center","Pre-2000",30.329,-81.6723
"Existing Transit","JTA ","Skyway","FCCJ Station","Pre-2000",30.3335,-81.6588
"Existing Transit","JTA ","Skyway","Hemming Plaza","Pre-2000",30.3294,-81.6599
"Existing Transit","JTA ","Skyway","Jefferson","Pre-2000",30.3276,-81.6675
"Existing Transit","JTA ","Skyway","Kings Avenue","Pre-2000",30.3153,-81.653
"Existing Transit","JTA ","Skyway","Riverplace","Pre-2000",30.3177,-81.6569
"Existing Transit","JTA ","Skyway","San Marco","Pre-2000",30.3178,-81.6608
"Existing Transit","KAT","Kenosha Historic Streetcar","10th Ave and 56th St","2001",42.58434815076,-87.823351746033
"Existing Transit","KAT","Kenosha Historic Streetcar","11th Ave and 56th St","2001",42.584204152548,-87.824542661377
"Existing Transit","KAT","Kenosha Historic Streetcar","2nd and 56th","2001",42.585685798571,-87.813644441742
"Existing Transit","KAT","Kenosha Historic Streetcar","3rd and 54th","2001",42.587265634354,-87.815264495988
"Existing Transit","KAT","Kenosha Historic Streetcar","3rd and 56th","2001",42.585543611378,-87.814835342545
"Existing Transit","KAT","Kenosha Historic Streetcar","4th and 54th","2001",42.587123450773,-87.816562685152
"Existing Transit","KAT","Kenosha Historic Streetcar","4th and 56th","2001",42.585385625237,-87.816133531708
"Existing Transit","KAT","Kenosha Historic Streetcar","54th St and 11th Ave","2001",42.586158,-87.824958
"Existing Transit","KAT","Kenosha Historic Streetcar","5th and 56th","2001",42.585180242655,-87.817260059494
"Existing Transit","KAT","Kenosha Historic Streetcar","6th and 54th","2001",42.586870679162,-87.818912300249
"Existing Transit","KAT","Kenosha Historic Streetcar","6th and 56th","2001",42.585069651754,-87.81857970633
"Existing Transit","KAT","Kenosha Historic Streetcar","7th and 56th","2001",42.584864268132,-87.819834980149
"Existing Transit","KAT","Kenosha Historic Streetcar","8th and 54th","2001",42.586633704845,-87.821519407411
"Existing Transit","KAT","Kenosha Historic Streetcar","8th Ave and 56th St","2001",42.584706280267,-87.820982965607
"Existing Transit","KCATA","Main Street MAX(58)","ON 11TH AT GRAND","2005",39.101089,-94.580696
"Existing Transit","KCATA","Main Street MAX(58)","ON 11TH/PETTICOAT LANE AT MAIN ","2005",39.10112,-94.583008
"Existing Transit","KCATA","Main Street MAX(58)","ON 12TH AT GRAND ","2005",39.099804,-94.580711
"Existing Transit","KCATA","Main Street MAX(58)","ON 12TH BETWEEN BALTIMORE AND MAIN ","2005",39.099899,-94.583733
"Existing Transit","KCATA","Main Street MAX(58)","ON 51ST AT GRAND ","2005",39.034843,-94.584908
"Existing Transit","KCATA","Main Street MAX(58)","ON 51ST AT MAIN ","2005",39.034927,-94.587196
"Existing Transit","KCATA","Main Street MAX(58)","ON 8TH BETWEEN GRAND AND MCGEE ","2005",39.104336,-94.580101
"Existing Transit","KCATA","Main Street MAX(58)","ON 8TH  BETWEEN MCGEE AND OAK ","2005",39.104298,-94.578873
"Existing Transit","KCATA","Main Street MAX(58)","ON BROADWAY AT 74TH TERR ","2005",38.99342,-94.593849
"Existing Transit","KCATA","Main Street MAX(58)","ON BROOKSIDE AT 51ST ","2005",39.034618,-94.58429
"Existing Transit","KCATA","Main Street MAX(58)","ON BROOKSIDE AT 52ND","2005",39.032368,-94.584099
"Existing Transit","KCATA","Main Street MAX(58)","ON BROOKSIDE AT 54TH ","2005",39.029049,-94.584381
"Existing Transit","KCATA","Main Street MAX(58)","ON BROOKSIDE AT 55TH ","2005",39.027412,-94.584923
"Existing Transit","KCATA","Main Street MAX(58)","ON BROOKSIDE AT 56TH","2005",39.025822,-94.585602
"Existing Transit","KCATA","Main Street MAX(58)","ON BROOKSIDE AT 57TH","2005",39.023872,-94.586426
"Existing Transit","KCATA","Main Street MAX(58)","ON BROOKSIDE AT 58TH","2005",39.022392,-94.587173
"Existing Transit","KCATA","Main Street MAX(58)","ON BROOKSIDE AT 59TH","2005",39.020309,-94.588295
"Existing Transit","KCATA","Main Street MAX(58)","ON BROOKSIDE AT 61ST","2005",39.01754,-94.589912
"Existing Transit","KCATA","Main Street MAX(58)","ON BROOKSIDE AT 62ND ","2005",39.015816,-94.590622
"Existing Transit","KCATA","Main Street MAX(58)","ON BROOKSIDE AT 63RD","2005",39.013905,-94.591492
"Existing Transit","KCATA","Main Street MAX(58)","ON BROOKSIDE AT MEYER ","2005",39.012535,-94.592209
"Existing Transit","KCATA","Main Street MAX(58)","ON GRAND ACROSS FROM CROWN CTR SHOPS ","2005",39.083424,-94.58165
"Existing Transit","KCATA","Main Street MAX(58)","ON GRAND AT 3RD METROCENTER ","2005",39.110466,-94.580902
"Existing Transit","KCATA","Main Street MAX(58)","ON GRAND AT 5TH","2005",39.108929,-94.580429
"Existing Transit","KCATA","Main Street MAX(58)","ON GRAND AT 9TH ","2005",39.103649,-94.580635
"Existing Transit","KCATA","Main Street MAX(58)","ON JC NICHOLS PKWY AT 47TH ","2005",39.041252,-94.588036
"Existing Transit","KCATA","Main Street MAX(58)","ON MAIN AT 29TH ","2005",39.074825,-94.585106
"Existing Transit","KCATA","Main Street MAX(58)","ON MAIN AT 31ST ","2005",39.070927,-94.585358
"Existing Transit","KCATA","Main Street MAX(58)","ON MAIN AT 39TH ","2005",39.056694,-94.586021
"Existing Transit","KCATA","Main Street MAX(58)","ON MAIN AT 43RD ","2005",39.049442,-94.586426
"Existing Transit","KCATA","Main Street MAX(58)","ON MAIN AT 45TH ","2005",39.045723,-94.586761
"Existing Transit","KCATA","Main Street MAX(58)","ON MAIN AT 47TH ","2005",39.041885,-94.586823
"Existing Transit","KCATA","Main Street MAX(58)","ON MAIN AT 49TH ","2005",39.03838,-94.587242
"Existing Transit","KCATA","Main Street MAX(58)","ON MAIN AT 50TH ","2005",39.03672,-94.587166
"Existing Transit","KCATA","Main Street MAX(58)","ON MAIN AT ARMOUR ","2005",39.063675,-94.585739
"Existing Transit","KCATA","Main Street MAX(58)","ON MAIN AT LINWOOD","2005",39.068104,-94.58551
"Existing Transit","KCATA","Main Street MAX(58)","ON MAIN BETWEEN 19TH AND 20TH ","2005",39.089767,-94.583755
"Existing Transit","KCATA","Main Street MAX(58)","ON MAIN BETWEEN 48TH AND S WARD PKWY ","2005",39.03944,-94.58699
"Existing Transit","KCATA","Main Street MAX(58)","ON MAIN JUST SOUTH OF UNION STATION DR ","2005",39.084526,-94.584106
"Existing Transit","KCATA","Main Street MAX(58)","ON OAK AT 11TH ","2005",39.101059,-94.578514
"Existing Transit","KCATA","Main Street MAX(58)","ON OAK AT 12TH ","2005",39.099903,-94.578484
"Existing Transit","KCATA","Main Street MAX(58)","ON OAK AT 9TH ","2005",39.103481,-94.578415
"Existing Transit","KCATA","Main Street MAX(58)","ON WORNALL AT 65TH ","2005",39.010109,-94.593109
"Existing Transit","KCATA","Main Street MAX(58)","ON WORNALL AT 66TH TERRACE ","2005",39.008236,-94.593315
"Existing Transit","KCATA","Main Street MAX(58)","ON WORNALL AT 67TH TERRACE ","2005",39.006729,-94.593391
"Existing Transit","KCATA","Main Street MAX(58)","ON WORNALL AT 68TH TERRACE ","2005",39.004654,-94.593399
"Existing Transit","KCATA","Main Street MAX(58)","ON WORNALL AT 70TH ","2005",39.001747,-94.593575
"Existing Transit","KCATA","Main Street MAX(58)","ON WORNALL AT 72ND ","2005",38.997841,-94.594017
"Existing Transit","KCATA","Main Street MAX(58)","ON WORNALL AT 73RD ST ","2005",38.996075,-94.594131
"Existing Transit","KCATA","Main Street MAX(58)","ON WORNALL AT 73RD TERRACE ","2005",38.994934,-94.594078
"Existing Transit","KCATA","Main Street MAX(58)","ON WORNALL AT GREGORY ","2005",38.999641,-94.593887
"Existing Transit","KCATA","Main Street MAX(58)","ON WORNALL AT MEYER","2005",39.012165,-94.593231
"Existing Transit","KCATA","Main Street MAX(58)","ON WYANDOTTE AT 13TH ","2005",39.098534,-94.585724
"Existing Transit","KCATA","Main Street MAX(58)","ON WYANDOTTE AT 16TH ","2005",39.095173,-94.585869
"Existing Transit","KCATA","Main Street MAX(58)","ON WYANDOTTE BETWEEN 11TH AND 12TH ","2005",39.100456,-94.585579
"Existing Transit","King County Marine Division","973","WATER TAXI ROUTE & HARBOR AVE SW","Pre-2000",47.5898666,-122.379784
"Existing Transit","King County Marine Division","975","VASHON PASS FERRY & PIER 50","Pre-2000",47.6015205,-122.337929
"Existing Transit","King County Marine Division","975","VASHON PASS FERRY & VASHON FERRY DOCK","Pre-2000",47.5109367,-122.464722
"Existing Transit","Kitsap Transit","Kitsap Transit Foot Ferry","Annapolis Foot Ferry Dock","Pre-2000",47.5481026944031,-122.617421150207
"Existing Transit","Kitsap Transit","Kitsap Transit Foot Ferry","Bremerton Foot Ferry Dock","Pre-2000",47.5622654538569,-122.624233961105
"Existing Transit","Kitsap Transit","Kitsap Transit Foot Ferry","Port Orchard Foot Ferry Dock","Pre-2000",47.5425371885579,-122.635960578918
"Existing Transit","Lane Transit District","EmX","11th & Willamette","2007",44.0477943,-123.0932018
"Existing Transit","Lane Transit District","EmX","Centennial Station","2007",44.05698,-123.0240625
"Existing Transit","Lane Transit District","EmX","EmX Agate Station","2007",44.0463653,-123.0692815
"Existing Transit","Lane Transit District","EmX","EmX Dads' Gates Station","2007",44.0477651,-123.07772
"Existing Transit","Lane Transit District","EmX","EmX Glenwood Station ","2007",44.0453139,-123.0432033
"Existing Transit","Lane Transit District","EmX","EmX High Street Station ","2007",44.0487713,-123.0877995
"Existing Transit","Lane Transit District","EmX","EmX Hilyard Station","2007",44.0476105,-123.0823123
"Existing Transit","Lane Transit District","EmX","EmX Lexington Station ","2007",44.0449966,-123.0365518
"Existing Transit","Lane Transit District","EmX","EmX McVay Station","2007",44.0441366,-123.0309161
"Existing Transit","Lane Transit District","EmX","EmX Walnut Station","2007",44.0448276,-123.061326
"Existing Transit","Lane Transit District","EmX",""E" Street Station","2007",44.0508591,-123.0220686
"Existing Transit","Lane Transit District","EmX","Eugene Station,Bay T","2007",44.0487466,-123.0933618
"Existing Transit","Lane Transit District","EmX",""F" Street Station","2007",44.0511576,-123.0231801
"Existing Transit","Lane Transit District","EmX","Gateway Sta.-Bay C","2007",44.0734891,-123.0426841
"Existing Transit","Lane Transit District","EmX","Guy Lee Station","2007",44.0709893,-123.0403013
"Existing Transit","Lane Transit District","EmX","Hayden Bridge Station","2007",44.0700652,-123.0286685
"Existing Transit","Lane Transit District","EmX","High Street Station inbound","2007",44.0477891,-123.0886366
"Existing Transit","Lane Transit District","EmX","International Center Station","2007",44.0884905,-123.0363493
"Existing Transit","Lane Transit District","EmX","International Way East Station","2007",44.0883824,-123.0303568
"Existing Transit","Lane Transit District","EmX","International Way Station West","2007",44.088438,-123.0421597
"Existing Transit","Lane Transit District","EmX","Kruse Way Station","2007",44.0817558,-123.041469
"Existing Transit","Lane Transit District","EmX","Pheasant Station","2007",44.0710094,-123.0337844
"Existing Transit","Lane Transit District","EmX","Postal Way Station","2007",44.077485,-123.0419016
"Existing Transit","Lane Transit District","EmX","Q Street Station","2007",44.0632991,-123.0262729
"Existing Transit","Lane Transit District","EmX","RiverBend Station","2007",44.0778615,-123.0307809
"Existing Transit","Lane Transit District","EmX","Sacred Heart Station","2007",44.0798153,-123.0289453
"Existing Transit","Lane Transit District","EmX","Springfield Station","2007",44.0455283,-123.0218766
"Existing Transit","Las Vegas Monorail","Las Vegas Strip(LV001)","Bally's & Paris Las Vegas Station","2004",36.11215,-115.16743
"Existing Transit","Las Vegas Monorail","Las Vegas Strip(LV001)","Flamingo / Caesars Palace Station","2004",36.11602,-115.16857
"Existing Transit","Las Vegas Monorail","Las Vegas Strip(LV001)","Harrah's / Imperial Palace Station","2004",36.11871,-115.16847
"Existing Transit","Las Vegas Monorail","Las Vegas Strip(LV001)","Las Vegas Convention Center Station","2004",36.1298032186937,-115.154464244842
"Existing Transit","Las Vegas Monorail","Las Vegas Strip(LV001)","Las Vegas Hilton Station","2004",36.13716,-115.15294
"Existing Transit","Las Vegas Monorail","Las Vegas Strip(LV001)","MGM Grand Station","2004",36.10239,-115.16776
"Existing Transit","Las Vegas Monorail","Las Vegas Strip(LV001)","Sahara Station","2004",36.1422,-115.15461
"Existing Transit","Long Island Rail Road","Babylon","Amityville","Pre-2000",40.68024,-73.42031
"Existing Transit","Long Island Rail Road","Babylon","Baldwin","Pre-2000",40.65672,-73.60716
"Existing Transit","Long Island Rail Road","Babylon","Bellmore","Pre-2000",40.66879,-73.52886
"Existing Transit","Long Island Rail Road","Babylon","Copiague","Pre-2000",40.68101,-73.39834
"Existing Transit","Long Island Rail Road","Babylon","Freeport","Pre-2000",40.65745,-73.58232
"Existing Transit","Long Island Rail Road","Babylon","Lindenhurst","Pre-2000",40.68826,-73.36921
"Existing Transit","Long Island Rail Road","Babylon","Massapequa","Pre-2000",40.67692,-73.46905
"Existing Transit","Long Island Rail Road","Babylon","Massapequa Park","Pre-2000",40.67785,-73.45474
"Existing Transit","Long Island Rail Road","Babylon","Merrick","Pre-2000",40.66379,-73.55062
"Existing Transit","Long Island Rail Road","Babylon","Rockville Centre","Pre-2000",40.65831,-73.64655
"Existing Transit","Long Island Rail Road","Babylon","Seaford","Pre-2000",40.67572,-73.48657
"Existing Transit","Long Island Rail Road","Babylon","Wantagh","Pre-2000",40.67298,-73.50896
"Existing Transit","Long Island Rail Road","Babylon, Long Beach","Lynbrook","Pre-2000",40.65605,-73.67607
"Existing Transit","Long Island Rail Road","Babylon, Montauk","Bay Shore","Pre-2000",40.72443,-73.25408
"Existing Transit","Long Island Rail Road","Babylon, Montauk","Bellport","Pre-2000",40.77373,-72.94396
"Existing Transit","Long Island Rail Road","Babylon, Montauk","Sayville","Pre-2000",40.74035,-73.08645
"Existing Transit","Long Island Rail Road","Babylon, West Hempstead","Saint Albans","Pre-2000",40.69118,-73.76551
"Existing Transit","Long Island Rail Road","Far Rockaway","Cedarhurst","Pre-2000",40.62217,-73.72618
"Existing Transit","Long Island Rail Road","Far Rockaway","Far Rockaway","Pre-2000",40.60913,-73.75054
"Existing Transit","Long Island Rail Road","Far Rockaway","Gibson","Pre-2000",40.64924,-73.70183
"Existing Transit","Long Island Rail Road","Far Rockaway","Hewlett","Pre-2000",40.63676,-73.70514
"Existing Transit","Long Island Rail Road","Far Rockaway","Inwood","Pre-2000",40.61228,-73.74418
"Existing Transit","Long Island Rail Road","Far Rockaway","Lawrence","Pre-2000",40.61573,-73.7359
"Existing Transit","Long Island Rail Road","Far Rockaway","Woodmere","Pre-2000",40.63133,-73.71371
"Existing Transit","Long Island Rail Road","Far Rockaway, Hempstead , West Hempstead, Babylon, Ronkonkoma, Port Jefferson, Long Beach","Forest Hills","Pre-2000",40.71957,-73.84481
"Existing Transit","Long Island Rail Road","Hempstead ","Bellerose","Pre-2000",40.7222,-73.71665
"Existing Transit","Long Island Rail Road","Hempstead ","Country Life Press","Pre-2000",40.72145,-73.62967
"Existing Transit","Long Island Rail Road","Hempstead ","Garden City","Pre-2000",40.72309,-73.64036
"Existing Transit","Long Island Rail Road","Hempstead ","Hempstead","Pre-2000",40.71329,-73.62503
"Existing Transit","Long Island Rail Road","Hempstead ","Nassau Boulevard","Pre-2000",40.72295,-73.6627
"Existing Transit","Long Island Rail Road","Hempstead ","Stewart Manor","Pre-2000",40.72302,-73.68102
"Existing Transit","Long Island Rail Road","Hempstead , Far Rockaway, Babylon, Long Beach, Montauk, Oyster Bay, Port Jefferson, Ronkonkoma, West Hempstead","Jamaica","Pre-2000",40.6996,-73.80853
"Existing Transit","Long Island Rail Road","Hempstead , Long Beach, West Hempstead, Babylon, Ronkonkoma, Far Rockaway","Nostrand Avenue","Pre-2000",40.67838,-73.94822
"Existing Transit","Long Island Rail Road","Hempstead , Oyster Bay","Hollis","Pre-2000",40.71017,-73.76675
"Existing Transit","Long Island Rail Road","Hempstead , Oyster Bay","Queens Village","Pre-2000",40.71745,-73.73646
"Existing Transit","Long Island Rail Road","Long Beach","Centre Avenue","Pre-2000",40.64831,-73.66397
"Existing Transit","Long Island Rail Road","Long Beach","East Rockaway","Pre-2000",40.6422,-73.65821
"Existing Transit","Long Island Rail Road","Long Beach","Island Park","Pre-2000",40.60129,-73.65474
"Existing Transit","Long Island Rail Road","Long Beach","Long Beach","Pre-2000",40.59017,-73.66482
"Existing Transit","Long Island Rail Road","Long Beach","Oceanside","Pre-2000",40.63471,-73.65466
"Existing Transit","Long Island Rail Road","Long Beach, Babylon, Far Rockaway","Laurelton","Pre-2000",40.66847,-73.75175
"Existing Transit","Long Island Rail Road","Long Beach, Babylon, Far Rockaway","Rosedale","Pre-2000",40.66594,-73.73555
"Existing Transit","Long Island Rail Road","Long Beach, Far Rockaway, Babylon","Locust Manor","Pre-2000",40.67513,-73.76504
"Existing Transit","Long Island Rail Road","Long Beach, West Hempstead, Ronkonkoma, Hempstead , Babylon, Far Rockaway, Port Jefferson, Port Washington - Penn Station, Oyster Bay","Woodside","Pre-2000",40.74584,-73.90297
"Existing Transit","Long Island Rail Road","Montauk","Amagansett","Pre-2000",40.98003,-72.13233
"Existing Transit","Long Island Rail Road","Montauk","Bridgehampton","Pre-2000",40.93898,-72.31005
"Existing Transit","Long Island Rail Road","Montauk","East Hampton","Pre-2000",40.96508,-72.19324
"Existing Transit","Long Island Rail Road","Montauk","Hampton Bays","Pre-2000",40.8766,-72.52395
"Existing Transit","Long Island Rail Road","Montauk","Montauk","Pre-2000",41.0471,-71.95388
"Existing Transit","Long Island Rail Road","Montauk","Southampton","Pre-2000",40.89471,-72.39012
"Existing Transit","Long Island Rail Road","Montauk","Westhampton","Pre-2000",40.8303,-72.65032
"Existing Transit","Long Island Rail Road","Montauk, Babylon","Babylon","Pre-2000",40.70068,-73.32405
"Existing Transit","Long Island Rail Road","Montauk, Babylon","Great River","Pre-2000",40.74044,-73.17019
"Existing Transit","Long Island Rail Road","Montauk, Babylon","Islip","Pre-2000",40.73583,-73.20932
"Existing Transit","Long Island Rail Road","Montauk, Babylon","Mastic Shirley","Pre-2000",40.79898,-72.86442
"Existing Transit","Long Island Rail Road","Montauk, Babylon","Oakdale","Pre-2000",40.74342,-73.13243
"Existing Transit","Long Island Rail Road","Montauk, Babylon","Patchogue","Pre-2000",40.76187,-73.01574
"Existing Transit","Long Island Rail Road","Montauk, Babylon","Speonk","Pre-2000",40.82117,-72.70427
"Existing Transit","Long Island Rail Road","Montauk, Port Jefferson, Oyster Bay","Long Island City","Pre-2000",40.74128,-73.95639
"Existing Transit","Long Island Rail Road","Montauk, Port Jefferson, Ronkonkoma","Hicksville","Pre-2000",40.76717,-73.52853
"Existing Transit","Long Island Rail Road","Oyster Bay","Albertson","Pre-2000",40.77205,-73.64169
"Existing Transit","Long Island Rail Road","Oyster Bay","East Williston","Pre-2000",40.75601,-73.63941
"Existing Transit","Long Island Rail Road","Oyster Bay","Glen Cove","Pre-2000",40.86583,-73.61616
"Existing Transit","Long Island Rail Road","Oyster Bay","Glen Head","Pre-2000",40.83222,-73.62612
"Existing Transit","Long Island Rail Road","Oyster Bay","Glen Street","Pre-2000",40.85797,-73.62122
"Existing Transit","Long Island Rail Road","Oyster Bay","Greenvale","Pre-2000",40.81571,-73.62687
"Existing Transit","Long Island Rail Road","Oyster Bay","Locust Valley","Pre-2000",40.87446,-73.5983
"Existing Transit","Long Island Rail Road","Oyster Bay","Oyster Bay","Pre-2000",40.87533,-73.53403
"Existing Transit","Long Island Rail Road","Oyster Bay","Roslyn","Pre-2000",40.79047,-73.64326
"Existing Transit","Long Island Rail Road","Oyster Bay","Sea Cliff","Pre-2000",40.85236,-73.62542
"Existing Transit","Long Island Rail Road","Port Jefferson","Cold Spring Harbor","Pre-2000",40.83563,-73.45108
"Existing Transit","Long Island Rail Road","Port Jefferson","Greenlawn","Pre-2000",40.86866,-73.36285
"Existing Transit","Long Island Rail Road","Port Jefferson","Huntington","Pre-2000",40.853,-73.40952
"Existing Transit","Long Island Rail Road","Port Jefferson","Kings Park","Pre-2000",40.88366,-73.25625
"Existing Transit","Long Island Rail Road","Port Jefferson","Northport","Pre-2000",40.88064,-73.32848
"Existing Transit","Long Island Rail Road","Port Jefferson","Port Jefferson","Pre-2000",40.93454,-73.0525
"Existing Transit","Long Island Rail Road","Port Jefferson","Saint James","Pre-2000",40.88216,-73.15951
"Existing Transit","Long Island Rail Road","Port Jefferson","Smithtown","Pre-2000",40.85654,-73.19803
"Existing Transit","Long Island Rail Road","Port Jefferson","Stony Brook","Pre-2000",40.92031,-73.12855
"Existing Transit","Long Island Rail Road","Port Jefferson","Syosset","Pre-2000",40.82485,-73.50044
"Existing Transit","Long Island Rail Road","Port Jefferson, Babylon, Hempstead , West Hempstead, Ronkonkoma, Far Rockaway, Long Beach","East New York","Pre-2000",40.6758,-73.90281
"Existing Transit","Long Island Rail Road","Port Jefferson, Hempstead , Oyster Bay","Floral Park","Pre-2000",40.72463,-73.7064
"Existing Transit","Long Island Rail Road","Port Jefferson, Montauk, Ronkonkoma, Oyster Bay","Mineola","Pre-2000",40.74034,-73.64086
"Existing Transit","Long Island Rail Road","Port Jefferson, Oyster Bay, Ronkonkoma","New Hyde Park","Pre-2000",40.73075,-73.68096
"Existing Transit","Long Island Rail Road","Port Jefferson, Ronkonkoma, Oyster Bay, Montauk","Hunterspoint Avenue","Pre-2000",40.74238,-73.94679
"Existing Transit","Long Island Rail Road","Port Washington - Penn Station","Auburndale","Pre-2000",40.76143,-73.78996
"Existing Transit","Long Island Rail Road","Port Washington - Penn Station","Bayside","Pre-2000",40.76314,-73.77125
"Existing Transit","Long Island Rail Road","Port Washington - Penn Station","Broadway","Pre-2000",40.76164,-73.80176
"Existing Transit","Long Island Rail Road","Port Washington - Penn Station","Douglaston","Pre-2000",40.76806,-73.74941
"Existing Transit","Long Island Rail Road","Port Washington - Penn Station","Flushing","Pre-2000",40.75789,-73.83135
"Existing Transit","Long Island Rail Road","Port Washington - Penn Station","Great Neck","Pre-2000",40.78721,-73.7261
"Existing Transit","Long Island Rail Road","Port Washington - Penn Station","Little Neck","Pre-2000",40.77504,-73.74065
"Existing Transit","Long Island Rail Road","Port Washington - Penn Station","Manhasset","Pre-2000",40.79672,-73.6999
"Existing Transit","Long Island Rail Road","Port Washington - Penn Station","Murray Hill","Pre-2000",40.7627,-73.81454
"Existing Transit","Long Island Rail Road","Port Washington - Penn Station","Plandome","Pre-2000",40.81069,-73.69521
"Existing Transit","Long Island Rail Road","Port Washington - Penn Station","Port Washington","Pre-2000",40.82903,-73.6874
"Existing Transit","Long Island Rail Road","Port Washington - Penn Station, Long Beach, Port Jefferson, Hempstead , Oyster Bay, Ronkonkoma, Montauk, Babylon, West Hempstead, Far Rockaway","Penn Station","Pre-2000",40.75058,-73.99358
"Existing Transit","Long Island Rail Road","Ronkonkoma","Bethpage","Pre-2000",40.74303,-73.48344
"Existing Transit","Long Island Rail Road","Ronkonkoma","Brentwood","Pre-2000",40.78083,-73.24361
"Existing Transit","Long Island Rail Road","Ronkonkoma","Central Islip","Pre-2000",40.79184,-73.19486
"Existing Transit","Long Island Rail Road","Ronkonkoma","Deer Park","Pre-2000",40.76948,-73.29356
"Existing Transit","Long Island Rail Road","Ronkonkoma","Farmingdale","Pre-2000",40.73591,-73.44124
"Existing Transit","Long Island Rail Road","Ronkonkoma","Greenport","Pre-2000",41.0997,-72.3631
"Existing Transit","Long Island Rail Road","Ronkonkoma","Mattituck","Pre-2000",40.99179,-72.53606
"Existing Transit","Long Island Rail Road","Ronkonkoma","Medford","Pre-2000",40.81739,-72.99891
"Existing Transit","Long Island Rail Road","Ronkonkoma","Pinelawn","Pre-2000",40.74535,-73.3996
"Existing Transit","Long Island Rail Road","Ronkonkoma","Riverhead","Pre-2000",40.91983,-72.66691
"Existing Transit","Long Island Rail Road","Ronkonkoma","Ronkonkoma","Pre-2000",40.80808,-73.10594
"Existing Transit","Long Island Rail Road","Ronkonkoma","Southold","Pre-2000",41.0662,-72.4281
"Existing Transit","Long Island Rail Road","Ronkonkoma","Wyandanch","Pre-2000",40.75479,-73.35806
"Existing Transit","Long Island Rail Road","Ronkonkoma","Yaphank","Pre-2000",40.8256,-72.91588
"Existing Transit","Long Island Rail Road","Ronkonkoma, Far Rockaway, Port Jefferson, Hempstead , Montauk, Babylon, Long Beach","Kew Gardens","Pre-2000",40.70964,-73.83089
"Existing Transit","Long Island Rail Road","Ronkonkoma, Oyster Bay, Port Jefferson","Merillon Avenue","Pre-2000",40.73516,-73.66252
"Existing Transit","Long Island Rail Road","Ronkonkoma, Port Jefferson","Carle Place","Pre-2000",40.7492,-73.60365
"Existing Transit","Long Island Rail Road","Ronkonkoma, Port Jefferson","Westbury","Pre-2000",40.75345,-73.58586
"Existing Transit","Long Island Rail Road","Ronkonkoma, Port Jefferson, Babylon, Far Rockaway, Long Beach, West Hempstead","Atlantic Terminal","Pre-2000",40.684901,-73.97768
"Existing Transit","Long Island Rail Road","West Hempstead","Hempstead Gardens","Pre-2000",40.69491,-73.64621
"Existing Transit","Long Island Rail Road","West Hempstead","Lakeview","Pre-2000",40.68585,-73.65214
"Existing Transit","Long Island Rail Road","West Hempstead","Malverne","Pre-2000",40.67547,-73.66886
"Existing Transit","Long Island Rail Road","West Hempstead","West Hempstead","Pre-2000",40.70195,-73.64164
"Existing Transit","Long Island Rail Road","West Hempstead","Westwood","Pre-2000",40.66836,-73.68121
"Existing Transit","Long Island Rail Road","West Hempstead, Babylon, Long Beach, Far Rockaway","Valley Stream","Pre-2000",40.66151,-73.70476
"Existing Transit","MARTA","BLUE-East/West Line(BLUE)","AVONDALE STATION","Pre-2000",33.77533,-84.280715
"Existing Transit","MARTA","BLUE-East/West Line(BLUE)","DECATUR STATION","Pre-2000",33.774449,-84.296907
"Existing Transit","MARTA","BLUE-East/West Line(BLUE)","EAST LAKE STATION","Pre-2000",33.765062,-84.312611
"Existing Transit","MARTA","BLUE-East/West Line(BLUE)","HAMILTON E HOLMES STATION","Pre-2000",33.754627,-84.468041
"Existing Transit","MARTA","BLUE-East/West Line(BLUE)","INDIAN CREEK STATION","Pre-2000",33.769212,-84.229255
"Existing Transit","MARTA","BLUE-East/West Line(BLUE)","KENSINGTON STATION","Pre-2000",33.772093,-84.252217
"Existing Transit","MARTA","BLUE-East/West Line(BLUE)","WEST LAKE STATION","Pre-2000",33.752888,-84.446654
"Existing Transit","MARTA","BLUE-East/West Line(BLUE), GREEN-Proctor Creek Line(GREEN)","DOME-GWCC-PHILIPS ARENA-CNN STATION","Pre-2000",33.75633,-84.397759
"Existing Transit","MARTA","BLUE-East/West Line(BLUE), GREEN-Proctor Creek Line(GREEN)","FIVE POINTS STATION","Pre-2000",33.753962,-84.391549
"Existing Transit","MARTA","BLUE-East/West Line(BLUE), GREEN-Proctor Creek Line(GREEN)","VINE CITY STATION","Pre-2000",33.756612,-84.404348
"Existing Transit","MARTA","GOLD-Northeast Doraville Line(GOLD)","BROOKHAVEN -OGLETHORPE STATION","Pre-2000",33.860615,-84.338831
"Existing Transit","MARTA","GOLD-Northeast Doraville Line(GOLD)","CHAMBLEE STATION","Pre-2000",33.887911,-84.305949
"Existing Transit","MARTA","GOLD-Northeast Doraville Line(GOLD)","DORAVILLE STATION","Pre-2000",33.902993,-84.28086
"Existing Transit","MARTA","GOLD-Northeast Doraville Line(GOLD)","LENOX STATION","Pre-2000",33.845137,-84.357854
"Existing Transit","MARTA","GOLD-Northeast Doraville Line(GOLD)","LINDBERGH  CENTER STATION","Pre-2000",33.823617,-84.36927
"Existing Transit","MARTA","GOLD-Northeast Doraville Line(GOLD), RED-North South North Springs Line(RED)","AIRPORT STATION","Pre-2000",33.639864,-84.446284
"Existing Transit","MARTA","GOLD-Northeast Doraville Line(GOLD), RED-North South North Springs Line(RED)","GARNETT STATION","Pre-2000",33.748929,-84.395513
"Existing Transit","MARTA","GOLD-Northeast Doraville Line(GOLD), RED-North South North Springs Line(RED)","LAKEWOOD- FT MCPHERSON  STATION","Pre-2000",33.700629,-84.4293
"Existing Transit","MARTA","GOLD-Northeast Doraville Line(GOLD), RED-North South North Springs Line(RED)","OAKLAND CITY STATION","Pre-2000",33.717264,-84.425279
"Existing Transit","MARTA","GREEN-Proctor Creek Line(GREEN)","BANKHEAD STATION","Pre-2000",33.771944,-84.428633
"Existing Transit","MARTA","GREEN-Proctor Creek Line(GREEN), BLUE-East/West Line(BLUE)","ASHBY STATION","Pre-2000",33.756343,-84.417556
"Existing Transit","MARTA","GREEN-Proctor Creek Line(GREEN), BLUE-East/West Line(BLUE)","EDGEWOOD-CANDLER PARK STATION","Pre-2000",33.761544,-84.340032
"Existing Transit","MARTA","GREEN-Proctor Creek Line(GREEN), BLUE-East/West Line(BLUE)","GEORGIA STATE STATION","Pre-2000",33.749866,-84.385404
"Existing Transit","MARTA","GREEN-Proctor Creek Line(GREEN), BLUE-East/West Line(BLUE)","INMAN PARK -REYNOLDSTOWN STATION","Pre-2000",33.757317,-84.35262
"Existing Transit","MARTA","GREEN-Proctor Creek Line(GREEN), BLUE-East/West Line(BLUE)","KING MEMORIAL STATION","Pre-2000",33.749468,-84.376011
"Existing Transit","MARTA","RED-North South North Springs Line(RED)","BUCKHEAD STATION","Pre-2000",33.847837,-84.367379
"Existing Transit","MARTA","RED-North South North Springs Line(RED)","DUNWOODY STATION","Pre-2000",33.920638,-84.344736
"Existing Transit","MARTA","RED-North South North Springs Line(RED)","LINDBERGH CENTER STATION","Pre-2000",33.823698,-84.369248
"Existing Transit","MARTA","RED-North South North Springs Line(RED)","LINDBERGH POCKET","Pre-2000",33.823456,-84.369292
"Existing Transit","MARTA","RED-North South North Springs Line(RED)","MEDICAL CENTER STATION","Pre-2000",33.912296,-84.351237
"Existing Transit","MARTA","RED-North South North Springs Line(RED)","NORTH SPRINGS STATION","Pre-2000",33.945433,-84.357395
"Existing Transit","MARTA","RED-North South North Springs Line(RED)","SANDY SPRINGS STATION","Pre-2000",33.931358,-84.350906
"Existing Transit","MARTA","RED-North South North Springs Line(RED), GOLD-Northeast Doraville Line(GOLD)","ARTS CENTER STATION","Pre-2000",33.789283,-84.387125
"Existing Transit","MARTA","RED-North South North Springs Line(RED), GOLD-Northeast Doraville Line(GOLD)","CIVIC CENTER STATION","Pre-2000",33.766245,-84.387504
"Existing Transit","MARTA","RED-North South North Springs Line(RED), GOLD-Northeast Doraville Line(GOLD)","COLLEGE PARK STATION","Pre-2000",33.65082,-84.448027
"Existing Transit","MARTA","RED-North South North Springs Line(RED), GOLD-Northeast Doraville Line(GOLD)","EAST POINT STATION","Pre-2000",33.676609,-84.440595
"Existing Transit","MARTA","RED-North South North Springs Line(RED), GOLD-Northeast Doraville Line(GOLD)","FIVE POINTS STATION","Pre-2000",33.754061,-84.391539
"Existing Transit","MARTA","RED-North South North Springs Line(RED), GOLD-Northeast Doraville Line(GOLD)","MIDTOWN STATION","Pre-2000",33.780737,-84.386657
"Existing Transit","MARTA","RED-North South North Springs Line(RED), GOLD-Northeast Doraville Line(GOLD)","NORTH AVENUE STATION","Pre-2000",33.771705,-84.387411
"Existing Transit","MARTA","RED-North South North Springs Line(RED), GOLD-Northeast Doraville Line(GOLD)","PEACHTREE CENTER STATION","Pre-2000",33.759541,-84.387564
"Existing Transit","MARTA","RED-North South North Springs Line(RED), GOLD-Northeast Doraville Line(GOLD)","WEST END STATION","Pre-2000",33.73584,-84.412967
"Existing Transit","Maryland Transit Administration","Brunswick Line(MARC)","BARNESVILLE MARC","Pre-2000",39.209452,-77.38228
"Existing Transit","Maryland Transit Administration","Brunswick Line(MARC)","BOYDS MARC","Pre-2000",39.183837,-77.312992
"Existing Transit","Maryland Transit Administration","Brunswick Line(MARC)","BRUNSWICK MD MARC ","Pre-2000",39.311859,-77.62705
"Existing Transit","Maryland Transit Administration","Brunswick Line(MARC)","DICKERSON MARC ","Pre-2000",39.220087,-77.424031
"Existing Transit","Maryland Transit Administration","Brunswick Line(MARC)","DUFFIELFS W VA MARC ","Pre-2000",39.362352,-77.82666
"Existing Transit","Maryland Transit Administration","Brunswick Line(MARC)","FREDERICK MARC ","Pre-2000",39.412722,-77.405447
"Existing Transit","Maryland Transit Administration","Brunswick Line(MARC)","GAITHERSBURG MARC ","Pre-2000",39.141424,-77.193339
"Existing Transit","Maryland Transit Administration","Brunswick Line(MARC)","GARRETT PARK MARC ","Pre-2000",39.038859,-77.093281
"Existing Transit","Maryland Transit Administration","Brunswick Line(MARC)","GERMANTOWN MARC ","Pre-2000",39.172523,-77.269566
